{"type": "FeatureCollection", "features": [{"type": "Feature", "properties": {"name": "St. Marks Church", "denomination": "", "source": "osm"}, "geometry": {"type": "Point", "coordinates": [80.2065651, 12.9864443]}}, {"type": "Feature", "properties": {"name": "Perambur Lourdes Church", "denomination": "", "source": "osm"}, "geometry": {"type": "Point", "coordinates": [80.2410153, 13.1090349]}}, {"type": "Feature", "properties": {"name": "St Theresas Church", "denomination": "", "source": "osm"}, "geometry": {"type": "Point", "coordinates": [80.2489306, 13.0551911]}}, {"type": "Feature", "properties": {"name": "Wesley Church", "denomination": "", "source": "osm"}, "geometry": {"type": "Point", "coordinates": [80.2644629, 13.0574606]}}, {"type": "Feature", "properties": {"name": "", "denomination": "", "source": "osm"}, "geometry": {"type": "Point", "coordinates": [78.5064355, 17.4427323]}}, {"type": "Feature", "properties": {"name": "Pentecostal Mission", "denomination": "", "source": "osm"}, "geometry": {"type": "Point", "coordinates": [80.1038493, 12.910879]}}, {"type": "Feature", "properties": {"name": "MGJSO Church Mettuguda", "denomination": "Jacobite Christian", "source": "osm"}, "geometry": {"type": "Point", "coordinates": [78.5177271, 17.4361795]}}, {"type": "Feature", "properties": {"name": "Infant Jesus Shrine", "denomination": "", "source": "osm"}, "geometry": {"type": "Point", "coordinates": [80.2113106, 13.0151562]}}, {"type": "Feature", "properties": {"name": "Holy Trinity Church", "denomination": "united", "source": "osm"}, "geometry": {"type": "Point", "coordinates": [80.2598139, 13.0815474]}}, {"type": "Feature", "properties": {"name": "CSI Wesley Church", "denomination": "", "source": "osm"}, "geometry": {"type": "Point", "coordinates": [80.1034119, 13.0501114]}}, {"type": "Feature", "properties": {"name": "St Marys Church", "denomination": "", "source": "osm"}, "geometry": {"type": "Point", "coordinates": [80.1074288, 13.0503706]}}, {"type": "Feature", "properties": {"name": "Blessing Worship Center", "denomination": "", "source": "osm"}, "geometry": {"type": "Point", "coordinates": [77.6494896, 13.0505862]}}, {"type": "Feature", "properties": {"name": "Kothanur CSI Church", "denomination": "", "source": "osm"}, "geometry": {"type": "Point", "coordinates": [77.6476683, 13.0568431]}}, {"type": "Feature", "properties": {"name": "Bethel Assembly of God Church", "denomination": "", "source": "osm"}, "geometry": {"type": "Point", "coordinates": [77.6472476, 13.038559]}}, {"type": "Feature", "properties": {"name": "Shalom A.G. Prarthanalaya", "denomination": "", "source": "osm"}, "geometry": {"type": "Point", "coordinates": [77.6434734, 13.0374407]}}, {"type": "Feature", "properties": {"name": "Rays of Peace", "denomination": "", "source": "osm"}, "geometry": {"type": "Point", "coordinates": [77.6438151, 13.032254]}}, {"type": "Feature", "properties": {"name": "Peniel Presbyterian Church", "denomination": "", "source": "osm"}, "geometry": {"type": "Point", "coordinates": [77.6458889, 13.0248848]}}, {"type": "Feature", "properties": {"name": "India Evangelical Church", "denomination": "", "source": "osm"}, "geometry": {"type": "Point", "coordinates": [77.6325425, 13.0203163]}}, {"type": "Feature", "properties": {"name": "Gethseman Sungji Church", "denomination": "", "source": "osm"}, "geometry": {"type": "Point", "coordinates": [77.6524721, 13.0255258]}}, {"type": "Feature", "properties": {"name": "St Marys Syrian Knanaya Church", "denomination": "", "source": "osm"}, "geometry": {"type": "Point", "coordinates": [77.6421063, 13.0372529]}}, {"type": "Feature", "properties": {"name": "Infant Jesus Church", "denomination": "", "source": "osm"}, "geometry": {"type": "Point", "coordinates": [80.1946323, 13.0564604]}}, {"type": "Feature", "properties": {"name": "", "denomination": "", "source": "osm"}, "geometry": {"type": "Point", "coordinates": [80.256444, 13.0979902]}}, {"type": "Feature", "properties": {"name": "Grace Church", "denomination": "anglican", "source": "osm"}, "geometry": {"type": "Point", "coordinates": [77.5648773, 12.9998952]}}, {"type": "Feature", "properties": {"name": "Saint Sebastian Forane Church", "denomination": "", "source": "osm"}, "geometry": {"type": "Point", "coordinates": [77.5625862, 13.0240917]}}, {"type": "Feature", "properties": {"name": "", "denomination": "", "source": "osm"}, "geometry": {"type": "Point", "coordinates": [77.6189413, 12.9479784]}}, {"type": "Feature", "properties": {"name": "", "denomination": "", "source": "osm"}, "geometry": {"type": "Point", "coordinates": [77.570647, 12.9848514]}}, {"type": "Feature", "properties": {"name": "", "denomination": "", "source": "osm"}, "geometry": {"type": "Point", "coordinates": [77.570503, 12.9857544]}}, {"type": "Feature", "properties": {"name": "", "denomination": "", "source": "osm"}, "geometry": {"type": "Point", "coordinates": [77.5707542, 12.9863991]}}, {"type": "Feature", "properties": {"name": "", "denomination": "", "source": "osm"}, "geometry": {"type": "Point", "coordinates": [77.6148988, 12.9500555]}}, {"type": "Feature", "properties": {"name": "Church statue", "denomination": "", "source": "osm"}, "geometry": {"type": "Point", "coordinates": [77.6154126, 12.9494647]}}, {"type": "Feature", "properties": {"name": "", "denomination": "", "source": "osm"}, "geometry": {"type": "Point", "coordinates": [77.6156719, 12.9503648]}}, {"type": "Feature", "properties": {"name": "St merry statue", "denomination": "", "source": "osm"}, "geometry": {"type": "Point", "coordinates": [77.6162762, 12.9505235]}}, {"type": "Feature", "properties": {"name": "Church statue", "denomination": "", "source": "osm"}, "geometry": {"type": "Point", "coordinates": [77.6166557, 12.9502096]}}, {"type": "Feature", "properties": {"name": "Baptist Church", "denomination": "", "source": "osm"}, "geometry": {"type": "Point", "coordinates": [78.489357, 17.3961081]}}, {"type": "Feature", "properties": {"name": "Bethel Brethren Assembly", "denomination": "brethren", "source": "osm"}, "geometry": {"type": "Point", "coordinates": [77.6401088, 13.0210003]}}, {"type": "Feature", "properties": {"name": "church", "denomination": "catholic", "source": "osm"}, "geometry": {"type": "Point", "coordinates": [80.1445066, 17.2502036]}}, {"type": "Feature", "properties": {"name": "", "denomination": "", "source": "osm"}, "geometry": {"type": "Point", "coordinates": [80.0391388, 12.8179343]}}, {"type": "Feature", "properties": {"name": "christ church", "denomination": "", "source": "osm"}, "geometry": {"type": "Point", "coordinates": [80.1514134, 17.2335578]}}, {"type": "Feature", "properties": {"name": "", "denomination": "", "source": "osm"}, "geometry": {"type": "Point", "coordinates": [80.1668987, 17.2542351]}}, {"type": "Feature", "properties": {"name": "St. Anthony's Shrine", "denomination": "catholic", "source": "osm"}, "geometry": {"type": "Point", "coordinates": [78.5199424, 17.4349662]}}, {"type": "Feature", "properties": {"name": "Shiloh", "denomination": "", "source": "osm"}, "geometry": {"type": "Point", "coordinates": [80.1351736, 17.2544327]}}, {"type": "Feature", "properties": {"name": "beracah church", "denomination": "", "source": "osm"}, "geometry": {"type": "Point", "coordinates": [80.149329, 17.2275118]}}, {"type": "Feature", "properties": {"name": "yesanna jayame", "denomination": "", "source": "osm"}, "geometry": {"type": "Point", "coordinates": [80.1365258, 17.2272153]}}, {"type": "Feature", "properties": {"name": "jesus given ministry", "denomination": "", "source": "osm"}, "geometry": {"type": "Point", "coordinates": [80.1611001, 17.2623944]}}, {"type": "Feature", "properties": {"name": "", "denomination": "", "source": "osm"}, "geometry": {"type": "Point", "coordinates": [80.1607938, 17.2616753]}}, {"type": "Feature", "properties": {"name": "", "denomination": "", "source": "osm"}, "geometry": {"type": "Point", "coordinates": [80.1429284, 17.281862]}}, {"type": "Feature", "properties": {"name": "church", "denomination": "", "source": "osm"}, "geometry": {"type": "Point", "coordinates": [80.1482651, 17.2394194]}}, {"type": "Feature", "properties": {"name": "", "denomination": "", "source": "osm"}, "geometry": {"type": "Point", "coordinates": [80.1507244, 12.9714121]}}, {"type": "Feature", "properties": {"name": "Bethany Evangelical Church Prayer Hall", "denomination": "", "source": "osm"}, "geometry": {"type": "Point", "coordinates": [80.1397545, 17.2386459]}}, {"type": "Feature", "properties": {"name": "", "denomination": "", "source": "osm"}, "geometry": {"type": "Point", "coordinates": [80.1304888, 12.9709745]}}, {"type": "Feature", "properties": {"name": "Jeevan Jothi Church", "denomination": "catholic", "source": "osm"}, "geometry": {"type": "Point", "coordinates": [80.1807515, 13.0233612]}}, {"type": "Feature", "properties": {"name": "C. S. I. T. A. Shanti Church", "denomination": "", "source": "osm"}, "geometry": {"type": "Point", "coordinates": [77.5965053, 12.9455764]}}, {"type": "Feature", "properties": {"name": "Church", "denomination": "", "source": "osm"}, "geometry": {"type": "Point", "coordinates": [78.3643788, 17.4634711]}}, {"type": "Feature", "properties": {"name": "", "denomination": "catholic", "source": "osm"}, "geometry": {"type": "Point", "coordinates": [80.1722396, 13.0134072]}}, {"type": "Feature", "properties": {"name": "Joseph's Church", "denomination": "catholic", "source": "osm"}, "geometry": {"type": "Point", "coordinates": [78.5219207, 17.5174214]}}, {"type": "Feature", "properties": {"name": "", "denomination": "", "source": "osm"}, "geometry": {"type": "Point", "coordinates": [80.2033168, 12.9271398]}}, {"type": "Feature", "properties": {"name": "", "denomination": "", "source": "osm"}, "geometry": {"type": "Point", "coordinates": [78.5109537, 17.4776288]}}, {"type": "Feature", "properties": {"name": "Church", "denomination": "", "source": "osm"}, "geometry": {"type": "Point", "coordinates": [79.5491374, 18.0031058]}}, {"type": "Feature", "properties": {"name": "St. Theresa Novitiate", "denomination": "", "source": "osm"}, "geometry": {"type": "Point", "coordinates": [77.749029, 12.9612629]}}, {"type": "Feature", "properties": {"name": "", "denomination": "", "source": "osm"}, "geometry": {"type": "Point", "coordinates": [80.263722, 12.9686765]}}, {"type": "Feature", "properties": {"name": "Church Of The Holy Name Of Jesus", "denomination": "", "source": "osm"}, "geometry": {"type": "Point", "coordinates": [77.515069, 12.9314098]}}, {"type": "Feature", "properties": {"name": "St Anthony", "denomination": "", "source": "osm"}, "geometry": {"type": "Point", "coordinates": [77.5442073, 12.9048588]}}, {"type": "Feature", "properties": {"name": "CSI Holy Cross Church", "denomination": "", "source": "osm"}, "geometry": {"type": "Point", "coordinates": [77.522294, 13.0456321]}}, {"type": "Feature", "properties": {"name": "", "denomination": "", "source": "osm"}, "geometry": {"type": "Point", "coordinates": [80.1363039, 17.2363061]}}, {"type": "Feature", "properties": {"name": "Infant Jesus Church Hongasandra", "denomination": "catholic", "source": "osm"}, "geometry": {"type": "Point", "coordinates": [77.6250769, 12.8900232]}}, {"type": "Feature", "properties": {"name": "St Marys Church", "denomination": "", "source": "osm"}, "geometry": {"type": "Point", "coordinates": [77.630729, 12.90536]}}, {"type": "Feature", "properties": {"name": "Kormangala Methodist Church", "denomination": "methodist", "source": "osm"}, "geometry": {"type": "Point", "coordinates": [77.6268856, 12.9345413]}}, {"type": "Feature", "properties": {"name": "Seva Sadan", "denomination": "catholic", "source": "osm"}, "geometry": {"type": "Point", "coordinates": [77.6290836, 12.9257639]}}, {"type": "Feature", "properties": {"name": "Methodist Church", "denomination": "", "source": "osm"}, "geometry": {"type": "Point", "coordinates": [77.6416279, 12.968363]}}, {"type": "Feature", "properties": {"name": "QMB Church", "denomination": "", "source": "osm"}, "geometry": {"type": "Point", "coordinates": [83.31723, 17.7314093]}}, {"type": "Feature", "properties": {"name": "Yesukrupalaya Church", "denomination": "", "source": "osm"}, "geometry": {"type": "Point", "coordinates": [77.5513325, 12.9940551]}}, {"type": "Feature", "properties": {"name": "Seashore St. Antony's shrine", "denomination": "roman_catholic", "source": "osm"}, "geometry": {"type": "Point", "coordinates": [80.2572485, 12.9573918]}}, {"type": "Feature", "properties": {"name": "Bethel Methodist Church", "denomination": "", "source": "osm"}, "geometry": {"type": "Point", "coordinates": [77.7173334, 13.0065498]}}, {"type": "Feature", "properties": {"name": "Manapakkam Church", "denomination": "catholic", "source": "osm"}, "geometry": {"type": "Point", "coordinates": [80.1722622, 13.0134057]}}, {"type": "Feature", "properties": {"name": "College Chapel", "denomination": "interdenominational", "source": "osm"}, "geometry": {"type": "Point", "coordinates": [79.1283847, 12.8776229]}}, {"type": "Feature", "properties": {"name": "Immaculate Conception Church", "denomination": "", "source": "osm"}, "geometry": {"type": "Point", "coordinates": [78.4059465, 17.4953836]}}, {"type": "Feature", "properties": {"name": "School Church", "denomination": "baptist", "source": "osm"}, "geometry": {"type": "Point", "coordinates": [80.2206968, 13.020153]}}, {"type": "Feature", "properties": {"name": "Church", "denomination": "", "source": "osm"}, "geometry": {"type": "Point", "coordinates": [80.2270337, 12.9790968]}}, {"type": "Feature", "properties": {"name": "St.Pius Church", "denomination": "", "source": "osm"}, "geometry": {"type": "Point", "coordinates": [80.2437737, 12.9642492]}}, {"type": "Feature", "properties": {"name": "", "denomination": "", "source": "osm"}, "geometry": {"type": "Point", "coordinates": [80.2388491, 12.9468091]}}, {"type": "Feature", "properties": {"name": "Shekinah Church", "denomination": "", "source": "osm"}, "geometry": {"type": "Point", "coordinates": [80.2339031, 12.9355058]}}, {"type": "Feature", "properties": {"name": "CSI St.Thomas Church", "denomination": "", "source": "osm"}, "geometry": {"type": "Point", "coordinates": [80.231752, 12.9335086]}}, {"type": "Feature", "properties": {"name": "St. Theresa Church", "denomination": "", "source": "osm"}, "geometry": {"type": "Point", "coordinates": [78.2741416, 12.9531045]}}, {"type": "Feature", "properties": {"name": "Dornakal Cathedral", "denomination": "", "source": "osm"}, "geometry": {"type": "Point", "coordinates": [80.1569392, 17.4457521]}}, {"type": "Feature", "properties": {"name": "Gethsemane Church", "denomination": "", "source": "osm"}, "geometry": {"type": "Point", "coordinates": [77.5705174, 12.9825204]}}, {"type": "Feature", "properties": {"name": "CSI Church", "denomination": "", "source": "osm"}, "geometry": {"type": "Point", "coordinates": [77.8247776, 12.7282273]}}, {"type": "Feature", "properties": {"name": "Church", "denomination": "", "source": "osm"}, "geometry": {"type": "Point", "coordinates": [77.136636, 16.7534931]}}, {"type": "Feature", "properties": {"name": "PowerHouse Church", "denomination": "nondenominational", "source": "osm"}, "geometry": {"type": "Point", "coordinates": [80.2182717, 13.0687865]}}, {"type": "Feature", "properties": {"name": "Bapist Church", "denomination": "", "source": "osm"}, "geometry": {"type": "Point", "coordinates": [78.5209584, 17.3702189]}}, {"type": "Feature", "properties": {"name": "Pentecostal Church", "denomination": "", "source": "osm"}, "geometry": {"type": "Point", "coordinates": [78.2740312, 12.9507547]}}, {"type": "Feature", "properties": {"name": "Prince of Peace Disciples Church", "denomination": "", "source": "osm"}, "geometry": {"type": "Point", "coordinates": [77.5991339, 12.9441545]}}, {"type": "Feature", "properties": {"name": "Church", "denomination": "", "source": "osm"}, "geometry": {"type": "Point", "coordinates": [76.8829675, 16.601934]}}, {"type": "Feature", "properties": {"name": "St. Marks Luthern Church", "denomination": "lutheran", "source": "osm"}, "geometry": {"type": "Point", "coordinates": [80.3587033, 15.8276126]}}, {"type": "Feature", "properties": {"name": "st.john the baptist church", "denomination": "", "source": "osm"}, "geometry": {"type": "Point", "coordinates": [78.5590583, 17.4803419]}}, {"type": "Feature", "properties": {"name": "Church", "denomination": "", "source": "osm"}, "geometry": {"type": "Point", "coordinates": [80.1444349, 17.2497154]}}, {"type": "Feature", "properties": {"name": "church", "denomination": "", "source": "osm"}, "geometry": {"type": "Point", "coordinates": [78.6446918, 19.0371524]}}, {"type": "Feature", "properties": {"name": "", "denomination": "", "source": "osm"}, "geometry": {"type": "Point", "coordinates": [78.5433036, 17.4011486]}}, {"type": "Feature", "properties": {"name": "Revival Christian Center (RCC)", "denomination": "", "source": "osm"}, "geometry": {"type": "Point", "coordinates": [79.533816, 17.9877266]}}, {"type": "Feature", "properties": {"name": "Glorious Church", "denomination": "", "source": "osm"}, "geometry": {"type": "Point", "coordinates": [78.1065534, 18.6884571]}}, {"type": "Feature", "properties": {"name": "Calvary Church", "denomination": "", "source": "osm"}, "geometry": {"type": "Point", "coordinates": [77.7513517, 12.9706021]}}, {"type": "Feature", "properties": {"name": "church", "denomination": "", "source": "osm"}, "geometry": {"type": "Point", "coordinates": [79.1086127, 13.2118805]}}, {"type": "Feature", "properties": {"name": "Assembly of God Church", "denomination": "", "source": "osm"}, "geometry": {"type": "Point", "coordinates": [78.2728358, 12.9434365]}}, {"type": "Feature", "properties": {"name": "Mission Church", "denomination": "", "source": "osm"}, "geometry": {"type": "Point", "coordinates": [78.2611976, 12.9545328]}}, {"type": "Feature", "properties": {"name": "Church", "denomination": "", "source": "osm"}, "geometry": {"type": "Point", "coordinates": [78.2531203, 12.9519345]}}, {"type": "Feature", "properties": {"name": "St. Michael's All Angels Curch", "denomination": "", "source": "osm"}, "geometry": {"type": "Point", "coordinates": [78.2520727, 12.9493855]}}, {"type": "Feature", "properties": {"name": "St. Peter's Church", "denomination": "", "source": "osm"}, "geometry": {"type": "Point", "coordinates": [78.2543025, 12.9641031]}}, {"type": "Feature", "properties": {"name": "", "denomination": "", "source": "osm"}, "geometry": {"type": "Point", "coordinates": [77.589322, 12.9287313]}}, {"type": "Feature", "properties": {"name": "CSI St Mark Church", "denomination": "", "source": "osm"}, "geometry": {"type": "Point", "coordinates": [80.1438885, 12.922164]}}, {"type": "Feature", "properties": {"name": "Kalavarti Pantemkostu Mission", "denomination": "", "source": "osm"}, "geometry": {"type": "Point", "coordinates": [81.7870586, 16.970095]}}, {"type": "Feature", "properties": {"name": "Gloria Die Parish Church", "denomination": "lutheran", "source": "osm"}, "geometry": {"type": "Point", "coordinates": [81.7849641, 16.9754833]}}, {"type": "Feature", "properties": {"name": "Pradhana Mandiram", "denomination": "", "source": "osm"}, "geometry": {"type": "Point", "coordinates": [81.785848, 16.9774801]}}, {"type": "Feature", "properties": {"name": "Bible Mission Church", "denomination": "", "source": "osm"}, "geometry": {"type": "Point", "coordinates": [81.7834253, 16.9775049]}}, {"type": "Feature", "properties": {"name": "Rcm'S St.John Of Arc Church", "denomination": "", "source": "osm"}, "geometry": {"type": "Point", "coordinates": [81.7871186, 16.9778678]}}, {"type": "Feature", "properties": {"name": "Bible Mission Church", "denomination": "", "source": "osm"}, "geometry": {"type": "Point", "coordinates": [81.784221, 16.9779504]}}, {"type": "Feature", "properties": {"name": "St Giles Csi Church", "denomination": "", "source": "osm"}, "geometry": {"type": "Point", "coordinates": [81.7868687, 16.9783184]}}, {"type": "Feature", "properties": {"name": "Church", "denomination": "", "source": "osm"}, "geometry": {"type": "Point", "coordinates": [81.7862968, 16.9783474]}}, {"type": "Feature", "properties": {"name": "Pradhana Mandiram", "denomination": "", "source": "osm"}, "geometry": {"type": "Point", "coordinates": [81.7922698, 16.9784772]}}, {"type": "Feature", "properties": {"name": "Pentestu Church", "denomination": "", "source": "osm"}, "geometry": {"type": "Point", "coordinates": [81.7850848, 16.9786798]}}, {"type": "Feature", "properties": {"name": "Church", "denomination": "", "source": "osm"}, "geometry": {"type": "Point", "coordinates": [81.783638, 16.9798324]}}, {"type": "Feature", "properties": {"name": "The Bread Of Life Church", "denomination": "", "source": "osm"}, "geometry": {"type": "Point", "coordinates": [81.7835481, 16.9815333]}}, {"type": "Feature", "properties": {"name": "Betelu Pradhana Mandiram", "denomination": "", "source": "osm"}, "geometry": {"type": "Point", "coordinates": [81.7884463, 16.9816585]}}, {"type": "Feature", "properties": {"name": "Church", "denomination": "", "source": "osm"}, "geometry": {"type": "Point", "coordinates": [81.7871585, 16.9823609]}}, {"type": "Feature", "properties": {"name": "The Laymesn's Evangelical Fellowship", "denomination": "", "source": "osm"}, "geometry": {"type": "Point", "coordinates": [81.7797547, 16.9887403]}}, {"type": "Feature", "properties": {"name": "Pemtekostu Pradhana Mandiram", "denomination": "", "source": "osm"}, "geometry": {"type": "Point", "coordinates": [81.7784111, 16.9967847]}}, {"type": "Feature", "properties": {"name": "Church", "denomination": "", "source": "osm"}, "geometry": {"type": "Point", "coordinates": [81.7829685, 16.998683]}}, {"type": "Feature", "properties": {"name": "Rock Ministries Church", "denomination": "", "source": "osm"}, "geometry": {"type": "Point", "coordinates": [81.8200875, 16.9987099]}}, {"type": "Feature", "properties": {"name": "Church", "denomination": "", "source": "osm"}, "geometry": {"type": "Point", "coordinates": [81.784448, 16.9999788]}}, {"type": "Feature", "properties": {"name": "Church", "denomination": "", "source": "osm"}, "geometry": {"type": "Point", "coordinates": [81.808134, 17.0016422]}}, {"type": "Feature", "properties": {"name": "Pradhana Mandiram", "denomination": "", "source": "osm"}, "geometry": {"type": "Point", "coordinates": [81.7820258, 17.0024764]}}, {"type": "Feature", "properties": {"name": "The Independent Full Gospel Church", "denomination": "", "source": "osm"}, "geometry": {"type": "Point", "coordinates": [81.7798634, 17.0027094]}}, {"type": "Feature", "properties": {"name": "Church", "denomination": "", "source": "osm"}, "geometry": {"type": "Point", "coordinates": [81.7831979, 17.0037195]}}, {"type": "Feature", "properties": {"name": "Church Of Christ & Andhra School Of Preaching", "denomination": "", "source": "osm"}, "geometry": {"type": "Point", "coordinates": [81.7752731, 17.0040558]}}, {"type": "Feature", "properties": {"name": "St. Paul's Church", "denomination": "", "source": "osm"}, "geometry": {"type": "Point", "coordinates": [81.774593, 17.0050452]}}, {"type": "Feature", "properties": {"name": "Saint Paul East Perish Luthern Church", "denomination": "", "source": "osm"}, "geometry": {"type": "Point", "coordinates": [81.7799009, 17.0051752]}}, {"type": "Feature", "properties": {"name": "Pentucoastal Church", "denomination": "", "source": "osm"}, "geometry": {"type": "Point", "coordinates": [81.7765946, 17.0061235]}}, {"type": "Feature", "properties": {"name": "Creestu Suvarta Devalayam", "denomination": "", "source": "osm"}, "geometry": {"type": "Point", "coordinates": [81.7795848, 17.0069425]}}, {"type": "Feature", "properties": {"name": "Church House", "denomination": "", "source": "osm"}, "geometry": {"type": "Point", "coordinates": [81.7707487, 17.0076126]}}, {"type": "Feature", "properties": {"name": "St. Theressa's Church", "denomination": "", "source": "osm"}, "geometry": {"type": "Point", "coordinates": [81.770775, 17.0076784]}}, {"type": "Feature", "properties": {"name": "Church", "denomination": "", "source": "osm"}, "geometry": {"type": "Point", "coordinates": [81.784804, 17.0083491]}}, {"type": "Feature", "properties": {"name": "Holy Trinity Church", "denomination": "", "source": "osm"}, "geometry": {"type": "Point", "coordinates": [81.7716053, 17.008647]}}, {"type": "Feature", "properties": {"name": "Bishop Joseph Church", "denomination": "", "source": "osm"}, "geometry": {"type": "Point", "coordinates": [81.79312, 17.008997]}}, {"type": "Feature", "properties": {"name": "Holy Trinity Church", "denomination": "", "source": "osm"}, "geometry": {"type": "Point", "coordinates": [81.7749278, 17.009983]}}, {"type": "Feature", "properties": {"name": "Ap Prayer Tower", "denomination": "", "source": "osm"}, "geometry": {"type": "Point", "coordinates": [81.7741572, 17.0101506]}}, {"type": "Feature", "properties": {"name": "St. Devadas Chuch", "denomination": "", "source": "osm"}, "geometry": {"type": "Point", "coordinates": [81.7810137, 17.0114446]}}, {"type": "Feature", "properties": {"name": "Young Holy Team Prayer Tower", "denomination": "", "source": "osm"}, "geometry": {"type": "Point", "coordinates": [81.7795641, 17.011764]}}, {"type": "Feature", "properties": {"name": "AELC Holy Trinity Church", "denomination": "lutheran", "source": "osm"}, "geometry": {"type": "Point", "coordinates": [81.7800065, 17.0119238]}}, {"type": "Feature", "properties": {"name": "Church (Nataraj Theatre)", "denomination": "", "source": "osm"}, "geometry": {"type": "Point", "coordinates": [81.7739024, 17.0139545]}}, {"type": "Feature", "properties": {"name": "Church", "denomination": "", "source": "osm"}, "geometry": {"type": "Point", "coordinates": [81.7761893, 17.0144762]}}, {"type": "Feature", "properties": {"name": "Church of Shalom of Netanya", "denomination": "", "source": "osm"}, "geometry": {"type": "Point", "coordinates": [81.8026254, 17.0155548]}}, {"type": "Feature", "properties": {"name": "Jesus Christ of Latter-day Saints", "denomination": "", "source": "osm"}, "geometry": {"type": "Point", "coordinates": [81.775746, 17.0158631]}}, {"type": "Feature", "properties": {"name": "Shalom Worship Center of Netanya", "denomination": "", "source": "osm"}, "geometry": {"type": "Point", "coordinates": [81.811921, 17.0194211]}}, {"type": "Feature", "properties": {"name": "Maranatha Mahima Devalayam Bible Mision", "denomination": "", "source": "osm"}, "geometry": {"type": "Point", "coordinates": [81.7935014, 17.0200071]}}, {"type": "Feature", "properties": {"name": "Pravachana Devuni Samgham", "denomination": "", "source": "osm"}, "geometry": {"type": "Point", "coordinates": [81.7960225, 17.0202558]}}, {"type": "Feature", "properties": {"name": "Yesu Kreesthu Prardana Mandiram", "denomination": "", "source": "osm"}, "geometry": {"type": "Point", "coordinates": [81.7770964, 17.0203002]}}, {"type": "Feature", "properties": {"name": "Calwary Mukthi Prayer Hall", "denomination": "", "source": "osm"}, "geometry": {"type": "Point", "coordinates": [81.796767, 17.0211002]}}, {"type": "Feature", "properties": {"name": "Belivers Church", "denomination": "", "source": "osm"}, "geometry": {"type": "Point", "coordinates": [81.811403, 17.0211013]}}, {"type": "Feature", "properties": {"name": "Mannafull Gospel Church", "denomination": "", "source": "osm"}, "geometry": {"type": "Point", "coordinates": [81.7934717, 17.0213674]}}, {"type": "Feature", "properties": {"name": "Aelc Church", "denomination": "", "source": "osm"}, "geometry": {"type": "Point", "coordinates": [81.7896732, 17.0216552]}}, {"type": "Feature", "properties": {"name": "Yahova Sakshula Rajya Mandiram", "denomination": "", "source": "osm"}, "geometry": {"type": "Point", "coordinates": [81.7932975, 17.0220496]}}, {"type": "Feature", "properties": {"name": "Young Men Christian Association", "denomination": "", "source": "osm"}, "geometry": {"type": "Point", "coordinates": [81.7896764, 17.0247493]}}, {"type": "Feature", "properties": {"name": "Yesu Kreesthu Prardhan Mandiram", "denomination": "", "source": "osm"}, "geometry": {"type": "Point", "coordinates": [81.7896091, 17.0250208]}}, {"type": "Feature", "properties": {"name": "Temple of Ten Commandments", "denomination": "", "source": "osm"}, "geometry": {"type": "Point", "coordinates": [81.806692, 17.025996]}}, {"type": "Feature", "properties": {"name": "Church", "denomination": "", "source": "osm"}, "geometry": {"type": "Point", "coordinates": [81.7813413, 17.0264436]}}, {"type": "Feature", "properties": {"name": "Church", "denomination": "", "source": "osm"}, "geometry": {"type": "Point", "coordinates": [81.7773571, 17.0279278]}}, {"type": "Feature", "properties": {"name": "Bethel Prayer House", "denomination": "", "source": "osm"}, "geometry": {"type": "Point", "coordinates": [81.7921322, 17.0295669]}}, {"type": "Feature", "properties": {"name": "Anjurala Mandiram", "denomination": "", "source": "osm"}, "geometry": {"type": "Point", "coordinates": [81.7819575, 17.0314089]}}, {"type": "Feature", "properties": {"name": "Yesukristhu Pradhana Mandiram", "denomination": "", "source": "osm"}, "geometry": {"type": "Point", "coordinates": [81.7819165, 17.0321005]}}, {"type": "Feature", "properties": {"name": "Church of God", "denomination": "", "source": "osm"}, "geometry": {"type": "Point", "coordinates": [81.7858162, 17.032443]}}, {"type": "Feature", "properties": {"name": "Jerusalemu Pradhana Mandiram", "denomination": "", "source": "osm"}, "geometry": {"type": "Point", "coordinates": [81.7848624, 17.0335084]}}, {"type": "Feature", "properties": {"name": "The Salvation Army Prayer Hall", "denomination": "salvation_army", "source": "osm"}, "geometry": {"type": "Point", "coordinates": [81.7846387, 17.0335816]}}, {"type": "Feature", "properties": {"name": "Andhra Lutheran Church", "denomination": "lutheran", "source": "osm"}, "geometry": {"type": "Point", "coordinates": [81.7902636, 17.0348816]}}, {"type": "Feature", "properties": {"name": "Pillar of Fire Ministires", "denomination": "", "source": "osm"}, "geometry": {"type": "Point", "coordinates": [81.7850166, 17.0350488]}}, {"type": "Feature", "properties": {"name": "Yasu Kristhu Pradhana Mandir", "denomination": "", "source": "osm"}, "geometry": {"type": "Point", "coordinates": [81.7899059, 17.0358612]}}, {"type": "Feature", "properties": {"name": "Sister Betty Church", "denomination": "", "source": "osm"}, "geometry": {"type": "Point", "coordinates": [81.7844789, 17.0366501]}}, {"type": "Feature", "properties": {"name": "Swasthatha Sala: Bibble Mission Church", "denomination": "", "source": "osm"}, "geometry": {"type": "Point", "coordinates": [81.7886409, 17.0370968]}}, {"type": "Feature", "properties": {"name": "chearch", "denomination": "", "source": "osm"}, "geometry": {"type": "Point", "coordinates": [79.16191, 17.7186257]}}, {"type": "Feature", "properties": {"name": "St Paul's Lutheran Church", "denomination": "protestant", "source": "osm"}, "geometry": {"type": "Point", "coordinates": [80.5670602, 16.4309769]}}, {"type": "Feature", "properties": {"name": "", "denomination": "", "source": "osm"}, "geometry": {"type": "Point", "coordinates": [82.0140351, 16.5986119]}}, {"type": "Feature", "properties": {"name": "Bethesda AG Church", "denomination": "", "source": "osm"}, "geometry": {"type": "Point", "coordinates": [77.5567369, 12.9893195]}}, {"type": "Feature", "properties": {"name": "The Church of Jesus Christ of Latter-day Saints", "denomination": "mormon", "source": "osm"}, "geometry": {"type": "Point", "coordinates": [78.3377154, 17.4964255]}}, {"type": "Feature", "properties": {"name": "csi church", "denomination": "", "source": "osm"}, "geometry": {"type": "Point", "coordinates": [78.114656, 18.6844612]}}, {"type": "Feature", "properties": {"name": "New Hope Worship Center", "denomination": "", "source": "osm"}, "geometry": {"type": "Point", "coordinates": [80.1453559, 16.8994945]}}, {"type": "Feature", "properties": {"name": "", "denomination": "", "source": "osm"}, "geometry": {"type": "Point", "coordinates": [80.2931433, 16.7629888]}}, {"type": "Feature", "properties": {"name": "", "denomination": "", "source": "osm"}, "geometry": {"type": "Point", "coordinates": [80.4730562, 16.6091986]}}, {"type": "Feature", "properties": {"name": "church", "denomination": "catholic", "source": "osm"}, "geometry": {"type": "Point", "coordinates": [79.8773252, 16.8882566]}}, {"type": "Feature", "properties": {"name": "charch", "denomination": "", "source": "osm"}, "geometry": {"type": "Point", "coordinates": [79.0914467, 17.2836088]}}, {"type": "Feature", "properties": {"name": "", "denomination": "", "source": "osm"}, "geometry": {"type": "Point", "coordinates": [77.6657694, 17.6688455]}}, {"type": "Feature", "properties": {"name": "athmakur", "denomination": "", "source": "osm"}, "geometry": {"type": "Point", "coordinates": [77.9560859, 17.6339305]}}, {"type": "Feature", "properties": {"name": "methodish church", "denomination": "", "source": "osm"}, "geometry": {"type": "Point", "coordinates": [77.7370298, 17.7565231]}}, {"type": "Feature", "properties": {"name": "church", "denomination": "", "source": "osm"}, "geometry": {"type": "Point", "coordinates": [77.7373323, 17.7559384]}}, {"type": "Feature", "properties": {"name": "church", "denomination": "", "source": "osm"}, "geometry": {"type": "Point", "coordinates": [77.6428846, 17.5853192]}}, {"type": "Feature", "properties": {"name": "chuurch parsapally", "denomination": "", "source": "osm"}, "geometry": {"type": "Point", "coordinates": [77.6435871, 17.5846162]}}, {"type": "Feature", "properties": {"name": "Ebenezer Church", "denomination": "pentecostal", "source": "osm"}, "geometry": {"type": "Point", "coordinates": [78.504025, 17.4903473]}}, {"type": "Feature", "properties": {"name": "St. Ann's School Church", "denomination": "roman_catholic", "source": "osm"}, "geometry": {"type": "Point", "coordinates": [78.5200002, 17.5161987]}}, {"type": "Feature", "properties": {"name": "METHODIST", "denomination": "", "source": "osm"}, "geometry": {"type": "Point", "coordinates": [77.7001134, 17.5905848]}}, {"type": "Feature", "properties": {"name": "", "denomination": "", "source": "osm"}, "geometry": {"type": "Point", "coordinates": [77.7124259, 17.8786259]}}, {"type": "Feature", "properties": {"name": "church", "denomination": "methodist", "source": "osm"}, "geometry": {"type": "Point", "coordinates": [77.7150775, 17.9063804]}}, {"type": "Feature", "properties": {"name": "church", "denomination": "", "source": "osm"}, "geometry": {"type": "Point", "coordinates": [78.3669602, 19.0074417]}}, {"type": "Feature", "properties": {"name": "church", "denomination": "", "source": "osm"}, "geometry": {"type": "Point", "coordinates": [79.5443202, 17.1658952]}}, {"type": "Feature", "properties": {"name": "", "denomination": "", "source": "osm"}, "geometry": {"type": "Point", "coordinates": [79.3644058, 18.9521453]}}, {"type": "Feature", "properties": {"name": "church", "denomination": "", "source": "osm"}, "geometry": {"type": "Point", "coordinates": [79.5389433, 17.1707517]}}, {"type": "Feature", "properties": {"name": "methadistchurch", "denomination": "", "source": "osm"}, "geometry": {"type": "Point", "coordinates": [77.7293765, 17.7180502]}}, {"type": "Feature", "properties": {"name": "CHURCH", "denomination": "", "source": "osm"}, "geometry": {"type": "Point", "coordinates": [77.6782567, 17.6257247]}}, {"type": "Feature", "properties": {"name": "CHURCH", "denomination": "", "source": "osm"}, "geometry": {"type": "Point", "coordinates": [77.7784801, 17.7102187]}}, {"type": "Feature", "properties": {"name": "merrymatha", "denomination": "", "source": "osm"}, "geometry": {"type": "Point", "coordinates": [78.0847388, 17.5913957]}}, {"type": "Feature", "properties": {"name": "medakchurch", "denomination": "", "source": "osm"}, "geometry": {"type": "Point", "coordinates": [78.2670787, 18.0535521]}}, {"type": "Feature", "properties": {"name": "churchground", "denomination": "", "source": "osm"}, "geometry": {"type": "Point", "coordinates": [78.2680901, 18.0528223]}}, {"type": "Feature", "properties": {"name": "last ministry", "denomination": "", "source": "osm"}, "geometry": {"type": "Point", "coordinates": [77.6355177, 17.6834311]}}, {"type": "Feature", "properties": {"name": "jesus christ ministries", "denomination": "baptist", "source": "osm"}, "geometry": {"type": "Point", "coordinates": [78.9739931, 16.7157152]}}, {"type": "Feature", "properties": {"name": "", "denomination": "baptist", "source": "osm"}, "geometry": {"type": "Point", "coordinates": [78.9840301, 16.71428]}}, {"type": "Feature", "properties": {"name": "AVEIL pastor  church", "denomination": "baptist", "source": "osm"}, "geometry": {"type": "Point", "coordinates": [78.9732695, 16.7165188]}}, {"type": "Feature", "properties": {"name": "church", "denomination": "", "source": "osm"}, "geometry": {"type": "Point", "coordinates": [79.2809633, 18.3660344]}}, {"type": "Feature", "properties": {"name": "church", "denomination": "", "source": "osm"}, "geometry": {"type": "Point", "coordinates": [79.2828851, 18.3676631]}}, {"type": "Feature", "properties": {"name": "methodist church", "denomination": "", "source": "osm"}, "geometry": {"type": "Point", "coordinates": [77.6854883, 17.6130477]}}, {"type": "Feature", "properties": {"name": "cross", "denomination": "", "source": "osm"}, "geometry": {"type": "Point", "coordinates": [77.6788366, 17.6204042]}}, {"type": "Feature", "properties": {"name": "church", "denomination": "", "source": "osm"}, "geometry": {"type": "Point", "coordinates": [77.6942853, 17.6334358]}}, {"type": "Feature", "properties": {"name": "church", "denomination": "", "source": "osm"}, "geometry": {"type": "Point", "coordinates": [77.690942, 17.646847]}}, {"type": "Feature", "properties": {"name": "hebron church", "denomination": "", "source": "osm"}, "geometry": {"type": "Point", "coordinates": [77.7135626, 17.5909705]}}, {"type": "Feature", "properties": {"name": "methodist church", "denomination": "", "source": "osm"}, "geometry": {"type": "Point", "coordinates": [77.7148626, 17.5948215]}}, {"type": "Feature", "properties": {"name": "The Church of Jesus Christ of Latter-day Saints", "denomination": "mormon", "source": "osm"}, "geometry": {"type": "Point", "coordinates": [77.6383683, 12.9819807]}}, {"type": "Feature", "properties": {"name": "", "denomination": "", "source": "osm"}, "geometry": {"type": "Point", "coordinates": [76.9439085, 17.131761]}}, {"type": "Feature", "properties": {"name": "Sacred Heart of Jesus Church", "denomination": "catholic", "source": "osm"}, "geometry": {"type": "Point", "coordinates": [80.1458669, 12.8974655]}}, {"type": "Feature", "properties": {"name": "Foursquare Gospel Church", "denomination": "", "source": "osm"}, "geometry": {"type": "Point", "coordinates": [77.6414026, 12.9714308]}}, {"type": "Feature", "properties": {"name": "Reapers of Christ Church", "denomination": "", "source": "osm"}, "geometry": {"type": "Point", "coordinates": [77.6594118, 12.9588464]}}, {"type": "Feature", "properties": {"name": "Lowry Adventist English Church", "denomination": "seventh_day_adventist", "source": "osm"}, "geometry": {"type": "Point", "coordinates": [77.6779628, 12.9987756]}}, {"type": "Feature", "properties": {"name": "Lowry Adventist Malayalam Church", "denomination": "seventh_day_adventist", "source": "osm"}, "geometry": {"type": "Point", "coordinates": [77.6774283, 12.9985726]}}, {"type": "Feature", "properties": {"name": "Lowry Adventist Telugu Church", "denomination": "seventh_day_adventist", "source": "osm"}, "geometry": {"type": "Point", "coordinates": [77.6768327, 12.9995105]}}, {"type": "Feature", "properties": {"name": "HMPA Church", "denomination": "", "source": "osm"}, "geometry": {"type": "Point", "coordinates": [80.2285664, 12.8838101]}}, {"type": "Feature", "properties": {"name": "St. Mary's Orthodox Valiapalli", "denomination": "orthodox", "source": "osm"}, "geometry": {"type": "Point", "coordinates": [77.548177, 13.0571395]}}, {"type": "Feature", "properties": {"name": "Church", "denomination": "", "source": "osm"}, "geometry": {"type": "Point", "coordinates": [81.9565646, 16.7670447]}}, {"type": "Feature", "properties": {"name": "Mary Matha Church", "denomination": "", "source": "osm"}, "geometry": {"type": "Point", "coordinates": [77.5450815, 12.9671346]}}, {"type": "Feature", "properties": {"name": "Lowry Adventist Kannada Church", "denomination": "seventh_day_adventist", "source": "osm"}, "geometry": {"type": "Point", "coordinates": [77.6807396, 12.9994669]}}, {"type": "Feature", "properties": {"name": "The Lemons Evangicial Fellowship", "denomination": "united", "source": "osm"}, "geometry": {"type": "Point", "coordinates": [80.050132, 15.4900078]}}, {"type": "Feature", "properties": {"name": "", "denomination": "baptist", "source": "osm"}, "geometry": {"type": "Point", "coordinates": [82.2314235, 16.9550637]}}, {"type": "Feature", "properties": {"name": "Jewette Memorial Baptist Church(JMBC)", "denomination": "", "source": "osm"}, "geometry": {"type": "Point", "coordinates": [80.0497613, 15.5000647]}}, {"type": "Feature", "properties": {"name": "Holy Cross Cathedral Church , Nandyal", "denomination": "catholic", "source": "osm"}, "geometry": {"type": "Point", "coordinates": [78.4704821, 15.476526]}}, {"type": "Feature", "properties": {"name": "CSI St James Church", "denomination": "", "source": "osm"}, "geometry": {"type": "Point", "coordinates": [80.2297164, 13.0981376]}}, {"type": "Feature", "properties": {"name": "Vishwavani Church - D.K.Parthi, AP", "denomination": "", "source": "osm"}, "geometry": {"type": "Point", "coordinates": [83.17425, 18.2207778]}}, {"type": "Feature", "properties": {"name": "Christ Grace Church", "denomination": "", "source": "osm"}, "geometry": {"type": "Point", "coordinates": [77.6288865, 12.9814424]}}, {"type": "Feature", "properties": {"name": "Peter Paul Church", "denomination": "", "source": "osm"}, "geometry": {"type": "Point", "coordinates": [77.557164, 12.964346]}}, {"type": "Feature", "properties": {"name": "Bethal Mar Church", "denomination": "", "source": "osm"}, "geometry": {"type": "Point", "coordinates": [77.6685256, 12.9914365]}}, {"type": "Feature", "properties": {"name": "Full Gospel Telugu Baptist Church", "denomination": "baptist", "source": "osm"}, "geometry": {"type": "Point", "coordinates": [80.1176193, 13.1197508]}}, {"type": "Feature", "properties": {"name": "", "denomination": "", "source": "osm"}, "geometry": {"type": "Point", "coordinates": [80.6323606, 16.2395915]}}, {"type": "Feature", "properties": {"name": "GDM CHURCH", "denomination": "", "source": "osm"}, "geometry": {"type": "Point", "coordinates": [81.7423431, 16.7513077]}}, {"type": "Feature", "properties": {"name": "SHARON CHURCH", "denomination": "catholic", "source": "osm"}, "geometry": {"type": "Point", "coordinates": [81.7446929, 16.7503927]}}, {"type": "Feature", "properties": {"name": "Church", "denomination": "", "source": "osm"}, "geometry": {"type": "Point", "coordinates": [79.0030807, 14.9473175]}}, {"type": "Feature", "properties": {"name": "church", "denomination": "", "source": "osm"}, "geometry": {"type": "Point", "coordinates": [80.1667051, 17.2492398]}}, {"type": "Feature", "properties": {"name": "Holy Cross Church - Catholic", "denomination": "", "source": "osm"}, "geometry": {"type": "Point", "coordinates": [80.2398019, 13.0329942]}}, {"type": "Feature", "properties": {"name": "Elshaddai Prayer Hall", "denomination": "", "source": "osm"}, "geometry": {"type": "Point", "coordinates": [77.6617929, 12.9218275]}}, {"type": "Feature", "properties": {"name": "Good shepherd Assembly Church", "denomination": "", "source": "osm"}, "geometry": {"type": "Point", "coordinates": [77.6626166, 12.9225373]}}, {"type": "Feature", "properties": {"name": "Bethelu Prardhana Mandiram", "denomination": "", "source": "osm"}, "geometry": {"type": "Point", "coordinates": [81.7750411, 17.0050838]}}, {"type": "Feature", "properties": {"name": "St Michael The Archangel", "denomination": "", "source": "osm"}, "geometry": {"type": "Point", "coordinates": [77.6463862, 12.9808002]}}, {"type": "Feature", "properties": {"name": "Martha Memorial Prayer Hall", "denomination": "", "source": "osm"}, "geometry": {"type": "Point", "coordinates": [77.6468064, 12.9807472]}}, {"type": "Feature", "properties": {"name": "", "denomination": "", "source": "osm"}, "geometry": {"type": "Point", "coordinates": [78.5687899, 17.3254258]}}, {"type": "Feature", "properties": {"name": "Bethelu Swasthata Prardhana Mandiramu", "denomination": "baptist", "source": "osm"}, "geometry": {"type": "Point", "coordinates": [78.9097379, 16.0715958]}}, {"type": "Feature", "properties": {"name": "Luka church", "denomination": "baptist", "source": "osm"}, "geometry": {"type": "Point", "coordinates": [78.9132062, 16.0771744]}}, {"type": "Feature", "properties": {"name": "Church", "denomination": "", "source": "osm"}, "geometry": {"type": "Point", "coordinates": [83.5203454, 18.0940041]}}, {"type": "Feature", "properties": {"name": "Divine Mercy Adoration Chapel", "denomination": "catholic", "source": "osm"}, "geometry": {"type": "Point", "coordinates": [78.5021432, 17.4418737]}}, {"type": "Feature", "properties": {"name": "St Luke’s Church", "denomination": "", "source": "osm"}, "geometry": {"type": "Point", "coordinates": [80.2641007, 13.0240079]}}, {"type": "Feature", "properties": {"name": "", "denomination": "", "source": "osm"}, "geometry": {"type": "Point", "coordinates": [77.5307764, 12.7738402]}}, {"type": "Feature", "properties": {"name": "Mar Thoma Church", "denomination": "", "source": "osm"}, "geometry": {"type": "Point", "coordinates": [77.7045923, 12.9487043]}}, {"type": "Feature", "properties": {"name": "Telugu Bapist Chruch", "denomination": "", "source": "osm"}, "geometry": {"type": "Point", "coordinates": [79.5111403, 17.9802709]}}, {"type": "Feature", "properties": {"name": "Rehoboth Church Of God", "denomination": "", "source": "osm"}, "geometry": {"type": "Point", "coordinates": [78.4564081, 17.4644315]}}, {"type": "Feature", "properties": {"name": "Sharone baptist church", "denomination": "", "source": "osm"}, "geometry": {"type": "Point", "coordinates": [79.9862184, 14.9033851]}}, {"type": "Feature", "properties": {"name": "Church", "denomination": "", "source": "osm"}, "geometry": {"type": "Point", "coordinates": [81.2657528, 16.8189887]}}, {"type": "Feature", "properties": {"name": "RCM Church", "denomination": "", "source": "osm"}, "geometry": {"type": "Point", "coordinates": [81.2651051, 16.8206894]}}, {"type": "Feature", "properties": {"name": "Trinity Lutheren Church", "denomination": "", "source": "osm"}, "geometry": {"type": "Point", "coordinates": [83.3017315, 17.7118527]}}, {"type": "Feature", "properties": {"name": "", "denomination": "", "source": "osm"}, "geometry": {"type": "Point", "coordinates": [80.1285429, 12.9328128]}}, {"type": "Feature", "properties": {"name": "EPPHM", "denomination": "", "source": "osm"}, "geometry": {"type": "Point", "coordinates": [78.5674873, 17.3611169]}}, {"type": "Feature", "properties": {"name": "", "denomination": "", "source": "osm"}, "geometry": {"type": "Point", "coordinates": [80.5228553, 16.1998893]}}, {"type": "Feature", "properties": {"name": "VENKATAPURAM BAPTIST CHURCH", "denomination": "", "source": "osm"}, "geometry": {"type": "Point", "coordinates": [82.4704911, 17.3051528]}}, {"type": "Feature", "properties": {"name": "House of Prayer CSI Church", "denomination": "", "source": "osm"}, "geometry": {"type": "Point", "coordinates": [80.2450524, 13.0060827]}}, {"type": "Feature", "properties": {"name": "Victory Christian assembly Church", "denomination": "", "source": "osm"}, "geometry": {"type": "Point", "coordinates": [80.1338218, 12.9227638]}}, {"type": "Feature", "properties": {"name": "advent christian church", "denomination": "", "source": "osm"}, "geometry": {"type": "Point", "coordinates": [80.1620926, 12.923056]}}, {"type": "Feature", "properties": {"name": "True Jesus Church", "denomination": "", "source": "osm"}, "geometry": {"type": "Point", "coordinates": [77.6406044, 12.9928759]}}, {"type": "Feature", "properties": {"name": "The Pentacoastal Mission", "denomination": "", "source": "osm"}, "geometry": {"type": "Point", "coordinates": [80.0626073, 13.1184545]}}, {"type": "Feature", "properties": {"name": "Sugajeeva chathedral", "denomination": "", "source": "osm"}, "geometry": {"type": "Point", "coordinates": [80.2513839, 12.9193614]}}, {"type": "Feature", "properties": {"name": "ECI CHURCH", "denomination": "", "source": "osm"}, "geometry": {"type": "Point", "coordinates": [80.0679391, 13.1202458]}}, {"type": "Feature", "properties": {"name": "7th Day Adventist Malyalam Church", "denomination": "theravada", "source": "osm"}, "geometry": {"type": "Point", "coordinates": [77.6324892, 13.0022482]}}, {"type": "Feature", "properties": {"name": "", "denomination": "", "source": "osm"}, "geometry": {"type": "Point", "coordinates": [80.150588, 12.943069]}}, {"type": "Feature", "properties": {"name": "Kukunuru Church GSELC", "denomination": "evangelical_lutheran", "source": "osm"}, "geometry": {"type": "Point", "coordinates": [81.1641657, 17.5533723]}}, {"type": "Feature", "properties": {"name": "Narayanapuram Church GSELC", "denomination": "evangelical_lutheran", "source": "osm"}, "geometry": {"type": "Point", "coordinates": [81.1537398, 17.3881682]}}, {"type": "Feature", "properties": {"name": "Vinnayakapuram Church GSELC", "denomination": "evangelical_lutheran", "source": "osm"}, "geometry": {"type": "Point", "coordinates": [81.1198546, 17.3515377]}}, {"type": "Feature", "properties": {"name": "Koyda Church GSELC", "denomination": "evangelical_lutheran", "source": "osm"}, "geometry": {"type": "Point", "coordinates": [81.3826248, 17.4805388]}}, {"type": "Feature", "properties": {"name": "Arukuru church GSELC", "denomination": "evangelical_lutheran", "source": "osm"}, "geometry": {"type": "Point", "coordinates": [81.2643675, 17.6530358]}}, {"type": "Feature", "properties": {"name": "GK-Padu Church GSELC", "denomination": "evangelical_lutheran", "source": "osm"}, "geometry": {"type": "Point", "coordinates": [81.0874721, 17.6414553]}}, {"type": "Feature", "properties": {"name": "Sandragunta Church GSELC", "denomination": "evangelical_lutheran", "source": "osm"}, "geometry": {"type": "Point", "coordinates": [80.8624061, 17.4515343]}}, {"type": "Feature", "properties": {"name": "Bethany House of worship பெத்தானியா ஆராதனை வீடு", "denomination": "", "source": "osm"}, "geometry": {"type": "Point", "coordinates": [80.1158578, 12.9182943]}}, {"type": "Feature", "properties": {"name": "Church of Jesus the Saviour", "denomination": "", "source": "osm"}, "geometry": {"type": "Point", "coordinates": [80.115592, 12.9161188]}}, {"type": "Feature", "properties": {"name": "Advent Christ Church", "denomination": "", "source": "osm"}, "geometry": {"type": "Point", "coordinates": [80.1522386, 12.8852076]}}, {"type": "Feature", "properties": {"name": "Church", "denomination": "", "source": "osm"}, "geometry": {"type": "Point", "coordinates": [81.6548578, 16.6039892]}}, {"type": "Feature", "properties": {"name": "Christ Union Church of God", "denomination": "", "source": "osm"}, "geometry": {"type": "Point", "coordinates": [77.6286191, 13.0047307]}}, {"type": "Feature", "properties": {"name": "Kompally", "denomination": "jehovahs_witness", "source": "osm"}, "geometry": {"type": "Point", "coordinates": [78.003997, 18.0823869]}}, {"type": "Feature", "properties": {"name": "", "denomination": "", "source": "osm"}, "geometry": {"type": "Point", "coordinates": [80.127181, 12.9239876]}}, {"type": "Feature", "properties": {"name": "The Free(ing) Church", "denomination": "", "source": "osm"}, "geometry": {"type": "Point", "coordinates": [80.1142533, 12.9245832]}}, {"type": "Feature", "properties": {"name": "St Thomas Church", "denomination": "", "source": "osm"}, "geometry": {"type": "Point", "coordinates": [77.661955, 12.9646322]}}, {"type": "Feature", "properties": {"name": "St Mary’s Chapel", "denomination": "", "source": "osm"}, "geometry": {"type": "Point", "coordinates": [77.6616683, 12.9641627]}}, {"type": "Feature", "properties": {"name": "Church of Christ", "denomination": "", "source": "osm"}, "geometry": {"type": "Point", "coordinates": [77.6602981, 12.9646524]}}, {"type": "Feature", "properties": {"name": "Church", "denomination": "catholic", "source": "osm"}, "geometry": {"type": "Point", "coordinates": [80.6240767, 16.3992706]}}, {"type": "Feature", "properties": {"name": "Lutheran Church", "denomination": "lutheran", "source": "osm"}, "geometry": {"type": "Point", "coordinates": [80.6256521, 16.396105]}}, {"type": "Feature", "properties": {"name": "Church", "denomination": "", "source": "osm"}, "geometry": {"type": "Point", "coordinates": [80.6106546, 16.4495927]}}, {"type": "Feature", "properties": {"name": "Ebenzerer Church", "denomination": "", "source": "osm"}, "geometry": {"type": "Point", "coordinates": [77.6763215, 12.8420341]}}, {"type": "Feature", "properties": {"name": "St. Paul's Church-Prakashreddy Pet", "denomination": "catholic", "source": "osm"}, "geometry": {"type": "Point", "coordinates": [79.5482265, 17.9858704]}}, {"type": "Feature", "properties": {"name": "Reddypalem Church", "denomination": "catholic", "source": "osm"}, "geometry": {"type": "Point", "coordinates": [79.6440674, 17.9969209]}}, {"type": "Feature", "properties": {"name": "", "denomination": "", "source": "osm"}, "geometry": {"type": "Point", "coordinates": [80.049189, 16.2303007]}}, {"type": "Feature", "properties": {"name": "CHURCH", "denomination": "", "source": "osm"}, "geometry": {"type": "Point", "coordinates": [84.0933297, 18.7790179]}}, {"type": "Feature", "properties": {"name": "", "denomination": "", "source": "osm"}, "geometry": {"type": "Point", "coordinates": [77.5594066, 13.0306296]}}, {"type": "Feature", "properties": {"name": "St. Mother Theresa Church (Sero Malabar), Velachery-Perungudi", "denomination": "catholic", "source": "osm"}, "geometry": {"type": "Point", "coordinates": [80.2479225, 12.9749042]}}, {"type": "Feature", "properties": {"name": "Church", "denomination": "", "source": "osm"}, "geometry": {"type": "Point", "coordinates": [80.3284149, 16.9899869]}}, {"type": "Feature", "properties": {"name": "RCM church", "denomination": "catholic", "source": "osm"}, "geometry": {"type": "Point", "coordinates": [80.148894, 17.4469972]}}, {"type": "Feature", "properties": {"name": "Christ The Saviour Church", "denomination": "", "source": "osm"}, "geometry": {"type": "Point", "coordinates": [83.1352013, 17.6569796]}}, {"type": "Feature", "properties": {"name": "Advent Church", "denomination": "baptist", "source": "osm"}, "geometry": {"type": "Point", "coordinates": [80.2230006, 13.0296307]}}, {"type": "Feature", "properties": {"name": "", "denomination": "", "source": "osm"}, "geometry": {"type": "Point", "coordinates": [80.0543663, 12.8492548]}}, {"type": "Feature", "properties": {"name": "AELC church", "denomination": "", "source": "osm"}, "geometry": {"type": "Point", "coordinates": [80.6104933, 16.4452026]}}, {"type": "Feature", "properties": {"name": "CSI Holy Trinity Church", "denomination": "CSI", "source": "osm"}, "geometry": {"type": "Point", "coordinates": [80.1285862, 13.1282888]}}, {"type": "Feature", "properties": {"name": "Chapel", "denomination": "catholic", "source": "osm"}, "geometry": {"type": "Point", "coordinates": [81.0945752, 16.696301]}}, {"type": "Feature", "properties": {"name": "RCM CHURCH", "denomination": "", "source": "osm"}, "geometry": {"type": "Point", "coordinates": [80.3209292, 17.5899971]}}, {"type": "Feature", "properties": {"name": "RCM church", "denomination": "", "source": "osm"}, "geometry": {"type": "Point", "coordinates": [81.587804, 16.5924464]}}, {"type": "Feature", "properties": {"name": "Lutheran church", "denomination": "", "source": "osm"}, "geometry": {"type": "Point", "coordinates": [80.6182045, 16.4611012]}}, {"type": "Feature", "properties": {"name": "New Logos Telugu Lutheran Church", "denomination": "lutheran", "source": "osm"}, "geometry": {"type": "Point", "coordinates": [80.2852074, 13.1203083]}}, {"type": "Feature", "properties": {"name": "St Alphonsa Syro Malabar Church, Kodambakkam", "denomination": "catholic", "source": "osm"}, "geometry": {"type": "Point", "coordinates": [80.2227353, 13.0566664]}}, {"type": "Feature", "properties": {"name": "", "denomination": "", "source": "osm"}, "geometry": {"type": "Point", "coordinates": [82.0210342, 19.0807242]}}, {"type": "Feature", "properties": {"name": "Holy Cross Sisters Convent", "denomination": "", "source": "osm"}, "geometry": {"type": "Point", "coordinates": [80.1004159, 13.1022382]}}, {"type": "Feature", "properties": {"name": "St.George Jacobite Syrian Orthodox Church", "denomination": "orthodox", "source": "osm"}, "geometry": {"type": "Point", "coordinates": [80.0999586, 13.1031823]}}, {"type": "Feature", "properties": {"name": "Little Mount Syro Malabar Church", "denomination": "catholic", "source": "osm"}, "geometry": {"type": "Point", "coordinates": [80.1973964, 13.0119327]}}, {"type": "Feature", "properties": {"name": "Springfield A.G. Church", "denomination": "assemblies_of_god", "source": "osm"}, "geometry": {"type": "Point", "coordinates": [77.6309524, 13.0289017]}}, {"type": "Feature", "properties": {"name": "St. Mary’s Malankara Catholic Church", "denomination": "catholic", "source": "osm"}, "geometry": {"type": "Point", "coordinates": [77.6319806, 13.0274673]}}, {"type": "Feature", "properties": {"name": "RCM church", "denomination": "", "source": "osm"}, "geometry": {"type": "Point", "coordinates": [80.6152789, 16.4806825]}}, {"type": "Feature", "properties": {"name": "Lutheran church", "denomination": "", "source": "osm"}, "geometry": {"type": "Point", "coordinates": [80.6143056, 16.4808884]}}, {"type": "Feature", "properties": {"name": "Pushpa Sadan", "denomination": "", "source": "osm"}, "geometry": {"type": "Point", "coordinates": [77.4901432, 12.9102591]}}, {"type": "Feature", "properties": {"name": "Holy Family Church", "denomination": "", "source": "osm"}, "geometry": {"type": "Point", "coordinates": [78.5127465, 17.477334]}}, {"type": "Feature", "properties": {"name": "Church", "denomination": "", "source": "osm"}, "geometry": {"type": "Point", "coordinates": [80.0984256, 17.466803]}}, {"type": "Feature", "properties": {"name": "CSI church", "denomination": "", "source": "osm"}, "geometry": {"type": "Point", "coordinates": [80.8892602, 17.670544]}}, {"type": "Feature", "properties": {"name": "Golden holi gaspal church", "denomination": "", "source": "osm"}, "geometry": {"type": "Point", "coordinates": [80.6579321, 16.4274783]}}, {"type": "Feature", "properties": {"name": "Maheema jeevana yoksha church", "denomination": "", "source": "osm"}, "geometry": {"type": "Point", "coordinates": [80.6581407, 16.4271804]}}, {"type": "Feature", "properties": {"name": "Jelchurch", "denomination": "", "source": "osm"}, "geometry": {"type": "Point", "coordinates": [82.7175169, 18.8050762]}}, {"type": "Feature", "properties": {"name": "", "denomination": "", "source": "osm"}, "geometry": {"type": "Point", "coordinates": [78.5435861, 17.3779436]}}, {"type": "Feature", "properties": {"name": "MB church", "denomination": "", "source": "osm"}, "geometry": {"type": "Point", "coordinates": [77.4861769, 15.7734555]}}, {"type": "Feature", "properties": {"name": "Lutheran church", "denomination": "", "source": "osm"}, "geometry": {"type": "Point", "coordinates": [83.270196, 17.7340196]}}, {"type": "Feature", "properties": {"name": "Beersheba Church", "denomination": "", "source": "osm"}, "geometry": {"type": "Point", "coordinates": [82.2416567, 16.9914416]}}, {"type": "Feature", "properties": {"name": "Emmanuel House of Worship", "denomination": "", "source": "osm"}, "geometry": {"type": "Point", "coordinates": [78.5030686, 17.4398649]}}, {"type": "Feature", "properties": {"name": "Centenary Baptist Church, Secundrabad", "denomination": "baptist", "source": "osm"}, "geometry": {"type": "Point", "coordinates": [78.499527, 17.4401041]}}, {"type": "Feature", "properties": {"name": "Laymen's Evangelical Fellowship International", "denomination": "evangelical", "source": "osm"}, "geometry": {"type": "Point", "coordinates": [78.4592463, 17.4127668]}}, {"type": "Feature", "properties": {"name": "Rehoboth Church", "denomination": "", "source": "osm"}, "geometry": {"type": "Point", "coordinates": [77.62855, 12.9422798]}}, {"type": "Feature", "properties": {"name": "church", "denomination": "", "source": "osm"}, "geometry": {"type": "Point", "coordinates": [80.658859, 16.3803829]}}, {"type": "Feature", "properties": {"name": "Church", "denomination": "", "source": "osm"}, "geometry": {"type": "Point", "coordinates": [77.1021156, 13.3652679]}}, {"type": "Feature", "properties": {"name": "New Apostolic Church", "denomination": "", "source": "osm"}, "geometry": {"type": "Point", "coordinates": [78.4197858, 17.469028]}}, {"type": "Feature", "properties": {"name": "Living Word Of Jesus Church", "denomination": "", "source": "osm"}, "geometry": {"type": "Point", "coordinates": [78.2998972, 17.5095743]}}, {"type": "Feature", "properties": {"name": "Peniel Church", "denomination": "", "source": "osm"}, "geometry": {"type": "Point", "coordinates": [78.481648, 17.533254]}}, {"type": "Feature", "properties": {"name": "Infant Jesus Catholic Church", "denomination": "", "source": "osm"}, "geometry": {"type": "Point", "coordinates": [78.5953364, 17.2748232]}}, {"type": "Feature", "properties": {"name": "", "denomination": "", "source": "osm"}, "geometry": {"type": "Point", "coordinates": [77.893399, 18.5324785]}}, {"type": "Feature", "properties": {"name": "Ross Hill Church", "denomination": "", "source": "osm"}, "geometry": {"type": "Point", "coordinates": [83.2870636, 17.6904373]}}, {"type": "Feature", "properties": {"name": "Silvadhara Church", "denomination": "", "source": "osm"}, "geometry": {"type": "Point", "coordinates": [80.820202, 17.595435]}}, {"type": "Feature", "properties": {"name": "RCM Church, Konijerla", "denomination": "", "source": "osm"}, "geometry": {"type": "Point", "coordinates": [80.296451, 17.220751]}}, {"type": "Feature", "properties": {"name": "Philadephia Church", "denomination": "", "source": "osm"}, "geometry": {"type": "Point", "coordinates": [81.047519, 17.316438]}}, {"type": "Feature", "properties": {"name": "MB Siyonu Church", "denomination": "", "source": "osm"}, "geometry": {"type": "Point", "coordinates": [77.679197, 15.977239]}}, {"type": "Feature", "properties": {"name": "MB Church, Itikyala", "denomination": "", "source": "osm"}, "geometry": {"type": "Point", "coordinates": [77.8515692, 16.0828504]}}, {"type": "Feature", "properties": {"name": "MB Church, Ieeja", "denomination": "", "source": "osm"}, "geometry": {"type": "Point", "coordinates": [77.675772, 16.013316]}}, {"type": "Feature", "properties": {"name": "CSI Wesley Church", "denomination": "", "source": "osm"}, "geometry": {"type": "Point", "coordinates": [78.1824275, 18.6287761]}}, {"type": "Feature", "properties": {"name": "Church, Dharmasagar", "denomination": "", "source": "osm"}, "geometry": {"type": "Point", "coordinates": [79.4444503, 17.9994876]}}, {"type": "Feature", "properties": {"name": "Church, Ekkaldevikunta", "denomination": "", "source": "osm"}, "geometry": {"type": "Point", "coordinates": [77.719437, 17.602849]}}, {"type": "Feature", "properties": {"name": "Calvary Church", "denomination": "", "source": "osm"}, "geometry": {"type": "Point", "coordinates": [78.8475874, 18.0970893]}}, {"type": "Feature", "properties": {"name": "Bible Mission Church", "denomination": "", "source": "osm"}, "geometry": {"type": "Point", "coordinates": [80.4404452, 17.3345272]}}, {"type": "Feature", "properties": {"name": "Bethelu sangam", "denomination": "", "source": "osm"}, "geometry": {"type": "Point", "coordinates": [79.4979999, 18.7198059]}}, {"type": "Feature", "properties": {"name": "Besthesa Church", "denomination": "", "source": "osm"}, "geometry": {"type": "Point", "coordinates": [80.095195, 17.179439]}}, {"type": "Feature", "properties": {"name": "Beraka Pradhana Maderam", "denomination": "", "source": "osm"}, "geometry": {"type": "Point", "coordinates": [79.4976298, 17.9063434]}}, {"type": "Feature", "properties": {"name": "Believers Eastern Church, Mariyala", "denomination": "", "source": "osm"}, "geometry": {"type": "Point", "coordinates": [78.812624, 17.5632949]}}, {"type": "Feature", "properties": {"name": "Baptist Church", "denomination": "", "source": "osm"}, "geometry": {"type": "Point", "coordinates": [79.1683612, 17.6066979]}}, {"type": "Feature", "properties": {"name": "CSI Church Pochampad", "denomination": "", "source": "osm"}, "geometry": {"type": "Point", "coordinates": [78.355431, 18.9698917]}}, {"type": "Feature", "properties": {"name": "Salim Bastralaya", "denomination": "", "source": "osm"}, "geometry": {"type": "Point", "coordinates": [78.9423614, 17.6166951]}}, {"type": "Feature", "properties": {"name": "Hosanna Mandir, Haliya", "denomination": "", "source": "osm"}, "geometry": {"type": "Point", "coordinates": [79.31942, 16.77567]}}, {"type": "Feature", "properties": {"name": "St. Jude Church", "denomination": "", "source": "osm"}, "geometry": {"type": "Point", "coordinates": [77.9070044, 17.3357737]}}, {"type": "Feature", "properties": {"name": "Bethel Prayer House", "denomination": "", "source": "osm"}, "geometry": {"type": "Point", "coordinates": [79.9967874, 16.8487471]}}, {"type": "Feature", "properties": {"name": "Shalem Church", "denomination": "", "source": "osm"}, "geometry": {"type": "Point", "coordinates": [79.4764558, 18.9236982]}}, {"type": "Feature", "properties": {"name": "Unruhpura Centenary Baptist Church", "denomination": "", "source": "osm"}, "geometry": {"type": "Point", "coordinates": [79.1619459, 17.7187347]}}, {"type": "Feature", "properties": {"name": "Siyonu Church", "denomination": "", "source": "osm"}, "geometry": {"type": "Point", "coordinates": [79.6245709, 17.9691179]}}, {"type": "Feature", "properties": {"name": "Agape Baptist Church", "denomination": "", "source": "osm"}, "geometry": {"type": "Point", "coordinates": [79.0555444, 17.6465704]}}, {"type": "Feature", "properties": {"name": "El shaddai Prayer House", "denomination": "", "source": "osm"}, "geometry": {"type": "Point", "coordinates": [80.146173, 17.251323]}}, {"type": "Feature", "properties": {"name": "Holy Trinity Lutheran Church", "denomination": "", "source": "osm"}, "geometry": {"type": "Point", "coordinates": [79.3057423, 16.605105]}}, {"type": "Feature", "properties": {"name": "FAITH HOME CHURCH", "denomination": "", "source": "osm"}, "geometry": {"type": "Point", "coordinates": [78.7132885, 18.2837492]}}, {"type": "Feature", "properties": {"name": "CSI Church", "denomination": "", "source": "osm"}, "geometry": {"type": "Point", "coordinates": [79.3262437, 16.7803839]}}, {"type": "Feature", "properties": {"name": "Siricilla Community Church", "denomination": "", "source": "osm"}, "geometry": {"type": "Point", "coordinates": [78.8091845, 18.3918734]}}, {"type": "Feature", "properties": {"name": "Pentecost Church", "denomination": "", "source": "osm"}, "geometry": {"type": "Point", "coordinates": [79.318221, 16.5893157]}}, {"type": "Feature", "properties": {"name": "Hebron Church", "denomination": "", "source": "osm"}, "geometry": {"type": "Point", "coordinates": [79.5349015, 18.69045]}}, {"type": "Feature", "properties": {"name": "Bethel Church", "denomination": "", "source": "osm"}, "geometry": {"type": "Point", "coordinates": [79.3857847, 18.6138479]}}, {"type": "Feature", "properties": {"name": "M B Immanuel Church", "denomination": "", "source": "osm"}, "geometry": {"type": "Point", "coordinates": [78.8839711, 16.6918377]}}, {"type": "Feature", "properties": {"name": "Rakshana Jyothi O'HOG Church", "denomination": "", "source": "osm"}, "geometry": {"type": "Point", "coordinates": [79.8448797, 17.8367629]}}, {"type": "Feature", "properties": {"name": "Palemu Pradhana Mandiramu", "denomination": "", "source": "osm"}, "geometry": {"type": "Point", "coordinates": [79.4922465, 18.7195384]}}, {"type": "Feature", "properties": {"name": "Church, Mallepalli", "denomination": "", "source": "osm"}, "geometry": {"type": "Point", "coordinates": [78.9737516, 16.7128563]}}, {"type": "Feature", "properties": {"name": "Zoin Church", "denomination": "", "source": "osm"}, "geometry": {"type": "Point", "coordinates": [80.093531, 17.1795395]}}, {"type": "Feature", "properties": {"name": "Velankanni Catholic Church", "denomination": "", "source": "osm"}, "geometry": {"type": "Point", "coordinates": [79.495945, 17.968758]}}, {"type": "Feature", "properties": {"name": "M B Jerushalem Church", "denomination": "", "source": "osm"}, "geometry": {"type": "Point", "coordinates": [77.816567, 16.5292664]}}, {"type": "Feature", "properties": {"name": "INDIAN PENTHE COSTHAL CHURCH", "denomination": "", "source": "osm"}, "geometry": {"type": "Point", "coordinates": [79.529684, 18.6878]}}, {"type": "Feature", "properties": {"name": "CSI Church Ponkal Jannaram", "denomination": "", "source": "osm"}, "geometry": {"type": "Point", "coordinates": [79.0018061, 19.11336]}}, {"type": "Feature", "properties": {"name": "Calvary Gospel Church", "denomination": "", "source": "osm"}, "geometry": {"type": "Point", "coordinates": [79.874708, 18.436365]}}, {"type": "Feature", "properties": {"name": "Jesus Pentecostal Prayer Ministries", "denomination": "", "source": "osm"}, "geometry": {"type": "Point", "coordinates": [78.2611081, 17.5355403]}}, {"type": "Feature", "properties": {"name": "Church Of Christ", "denomination": "", "source": "osm"}, "geometry": {"type": "Point", "coordinates": [78.4430994, 17.5189419]}}, {"type": "Feature", "properties": {"name": "Calvary Bible Church", "denomination": "", "source": "osm"}, "geometry": {"type": "Point", "coordinates": [78.542212, 18.550739]}}, {"type": "Feature", "properties": {"name": "Baptist Church", "denomination": "", "source": "osm"}, "geometry": {"type": "Point", "coordinates": [78.540452, 18.409284]}}, {"type": "Feature", "properties": {"name": "CSI Church", "denomination": "", "source": "osm"}, "geometry": {"type": "Point", "coordinates": [78.646198, 19.038715]}}, {"type": "Feature", "properties": {"name": "Shalem FIGC Church", "denomination": "", "source": "osm"}, "geometry": {"type": "Point", "coordinates": [79.2020475, 18.900405]}}, {"type": "Feature", "properties": {"name": "Bethel Vision Church", "denomination": "", "source": "osm"}, "geometry": {"type": "Point", "coordinates": [79.200973, 18.8961062]}}, {"type": "Feature", "properties": {"name": "CSI Wesley Church Gudirevu", "denomination": "", "source": "osm"}, "geometry": {"type": "Point", "coordinates": [79.095288, 19.0249324]}}, {"type": "Feature", "properties": {"name": "kothur church", "denomination": "", "source": "osm"}, "geometry": {"type": "Point", "coordinates": [79.19632, 18.9256129]}}, {"type": "Feature", "properties": {"name": "BETHANY PRAYER HOUSE", "denomination": "", "source": "osm"}, "geometry": {"type": "Point", "coordinates": [78.6235419, 18.8480765]}}, {"type": "Feature", "properties": {"name": "Manna Church", "denomination": "", "source": "osm"}, "geometry": {"type": "Point", "coordinates": [78.2977156, 18.7810058]}}, {"type": "Feature", "properties": {"name": "st.peters church", "denomination": "", "source": "osm"}, "geometry": {"type": "Point", "coordinates": [79.8881317, 17.8526239]}}, {"type": "Feature", "properties": {"name": "church", "denomination": "", "source": "osm"}, "geometry": {"type": "Point", "coordinates": [78.4374763, 15.4598462]}}, {"type": "Feature", "properties": {"name": "Gethsamane Church", "denomination": "", "source": "osm"}, "geometry": {"type": "Point", "coordinates": [78.3889154, 17.447371]}}, {"type": "Feature", "properties": {"name": "Church", "denomination": "", "source": "osm"}, "geometry": {"type": "Point", "coordinates": [80.9500933, 16.3268803]}}, {"type": "Feature", "properties": {"name": "MB Prarthana Mandiram", "denomination": "protestant", "source": "osm"}, "geometry": {"type": "Point", "coordinates": [77.994983, 16.7548544]}}, {"type": "Feature", "properties": {"name": "", "denomination": "", "source": "osm"}, "geometry": {"type": "Point", "coordinates": [78.8970442, 16.1044153]}}, {"type": "Feature", "properties": {"name": "church", "denomination": "", "source": "osm"}, "geometry": {"type": "Point", "coordinates": [78.5704024, 17.4556039]}}, {"type": "Feature", "properties": {"name": "church", "denomination": "", "source": "osm"}, "geometry": {"type": "Point", "coordinates": [79.7691637, 15.8095256]}}, {"type": "Feature", "properties": {"name": "St. Peters Syro Malabar Church Avadi", "denomination": "catholic", "source": "osm"}, "geometry": {"type": "Point", "coordinates": [80.0668252, 13.1496251]}}, {"type": "Feature", "properties": {"name": "Fusion Church", "denomination": "", "source": "osm"}, "geometry": {"type": "Point", "coordinates": [78.3856485, 17.4449989]}}, {"type": "Feature", "properties": {"name": "Kingdom Hall of JW, HiTech City Congregation", "denomination": "", "source": "osm"}, "geometry": {"type": "Point", "coordinates": [78.3952871, 17.4414835]}}, {"type": "Feature", "properties": {"name": "Shine of Shekinah church", "denomination": "", "source": "osm"}, "geometry": {"type": "Point", "coordinates": [78.4004935, 17.4357332]}}, {"type": "Feature", "properties": {"name": "Penthekosthu Prabhu Pradhana Mandiram", "denomination": "", "source": "osm"}, "geometry": {"type": "Point", "coordinates": [78.3882198, 17.4422069]}}, {"type": "Feature", "properties": {"name": "Salem House of prayer", "denomination": "pentecostal", "source": "osm"}, "geometry": {"type": "Point", "coordinates": [81.1455761, 16.1965629]}}, {"type": "Feature", "properties": {"name": "", "denomination": "", "source": "osm"}, "geometry": {"type": "Point", "coordinates": [79.3078474, 16.6081579]}}, {"type": "Feature", "properties": {"name": "church", "denomination": "", "source": "osm"}, "geometry": {"type": "Point", "coordinates": [77.871127, 15.9839073]}}, {"type": "Feature", "properties": {"name": "GDM Church", "denomination": "", "source": "osm"}, "geometry": {"type": "Point", "coordinates": [81.524134, 16.815813]}}, {"type": "Feature", "properties": {"name": "", "denomination": "", "source": "osm"}, "geometry": {"type": "Point", "coordinates": [79.5746989, 18.456419]}}, {"type": "Feature", "properties": {"name": "church", "denomination": "", "source": "osm"}, "geometry": {"type": "Point", "coordinates": [78.2465464, 17.3069062]}}, {"type": "Feature", "properties": {"name": "church", "denomination": "methodist", "source": "osm"}, "geometry": {"type": "Point", "coordinates": [77.6146841, 17.6765353]}}, {"type": "Feature", "properties": {"name": "Christian Church", "denomination": "", "source": "osm"}, "geometry": {"type": "Point", "coordinates": [83.6449611, 18.5459588]}}, {"type": "Feature", "properties": {"name": "", "denomination": "", "source": "osm"}, "geometry": {"type": "Point", "coordinates": [80.8205156, 16.0164851]}}, {"type": "Feature", "properties": {"name": "", "denomination": "", "source": "osm"}, "geometry": {"type": "Point", "coordinates": [78.5085942, 17.4155542]}}, {"type": "Feature", "properties": {"name": "church", "denomination": "", "source": "osm"}, "geometry": {"type": "Point", "coordinates": [79.6006561, 17.9562049]}}, {"type": "Feature", "properties": {"name": "", "denomination": "", "source": "osm"}, "geometry": {"type": "Point", "coordinates": [78.5073476, 17.4130904]}}, {"type": "Feature", "properties": {"name": "", "denomination": "", "source": "osm"}, "geometry": {"type": "Point", "coordinates": [80.4262422, 16.3162509]}}, {"type": "Feature", "properties": {"name": "Methodist Church", "denomination": "", "source": "osm"}, "geometry": {"type": "Point", "coordinates": [78.2753482, 17.3288565]}}, {"type": "Feature", "properties": {"name": "", "denomination": "", "source": "osm"}, "geometry": {"type": "Point", "coordinates": [78.5086423, 17.4142455]}}, {"type": "Feature", "properties": {"name": "", "denomination": "", "source": "osm"}, "geometry": {"type": "Point", "coordinates": [80.4426147, 16.2917424]}}, {"type": "Feature", "properties": {"name": "", "denomination": "", "source": "osm"}, "geometry": {"type": "Point", "coordinates": [80.3719569, 16.3071591]}}, {"type": "Feature", "properties": {"name": "Manikya Nagar Church", "denomination": "", "source": "osm"}, "geometry": {"type": "Point", "coordinates": [80.1601821, 17.2423279]}}, {"type": "Feature", "properties": {"name": "Infant jesus church", "denomination": "", "source": "osm"}, "geometry": {"type": "Point", "coordinates": [80.4897533, 18.2643211]}}, {"type": "Feature", "properties": {"name": "St Anthony's Church", "denomination": "", "source": "osm"}, "geometry": {"type": "Point", "coordinates": [77.6118569, 13.001321]}}, {"type": "Feature", "properties": {"name": "Sisters of Mary Immaculate of Bishop Morrow", "denomination": "", "source": "osm"}, "geometry": {"type": "Point", "coordinates": [77.6058018, 12.9963502]}}, {"type": "Feature", "properties": {"name": "Manna Full Gospel Church", "denomination": "", "source": "osm"}, "geometry": {"type": "Point", "coordinates": [78.4028497, 17.3227065]}}, {"type": "Feature", "properties": {"name": "CSI Wesley Church", "denomination": "", "source": "osm"}, "geometry": {"type": "Point", "coordinates": [78.498771, 17.4145262]}}, {"type": "Feature", "properties": {"name": "St. Peter & St.Paul's Orthodox Church", "denomination": "", "source": "osm"}, "geometry": {"type": "Point", "coordinates": [80.1974314, 13.0772875]}}, {"type": "Feature", "properties": {"name": "Bible mission church", "denomination": "", "source": "osm"}, "geometry": {"type": "Point", "coordinates": [81.4940915, 16.8480344]}}, {"type": "Feature", "properties": {"name": "St. Paul's Church", "denomination": "catholic", "source": "osm"}, "geometry": {"type": "Point", "coordinates": [77.5051347, 13.0375383]}}, {"type": "Feature", "properties": {"name": "Anthony Church", "denomination": "", "source": "osm"}, "geometry": {"type": "Point", "coordinates": [77.604767, 12.9279298]}}, {"type": "Feature", "properties": {"name": "Our Lady of Good Health Church", "denomination": "", "source": "osm"}, "geometry": {"type": "Point", "coordinates": [78.3626779, 17.4655306]}}, {"type": "Feature", "properties": {"name": "Bible Believers Church", "denomination": "", "source": "osm"}, "geometry": {"type": "Point", "coordinates": [78.3630344, 17.4655397]}}, {"type": "Feature", "properties": {"name": "ECI Church", "denomination": "", "source": "osm"}, "geometry": {"type": "Point", "coordinates": [77.6065286, 12.9072819]}}, {"type": "Feature", "properties": {"name": "Sagarmatha Aalayamu", "denomination": "", "source": "osm"}, "geometry": {"type": "Point", "coordinates": [79.3010151, 16.5568588]}}, {"type": "Feature", "properties": {"name": "Revival christian center", "denomination": "", "source": "osm"}, "geometry": {"type": "Point", "coordinates": [79.3684026, 18.0856145]}}, {"type": "Feature", "properties": {"name": "Philadelphia AG Church", "denomination": "", "source": "osm"}, "geometry": {"type": "Point", "coordinates": [77.6663343, 13.0685996]}}, {"type": "Feature", "properties": {"name": "Emmanuel Marthoma Church", "denomination": "", "source": "osm"}, "geometry": {"type": "Point", "coordinates": [77.6613722, 13.0696008]}}, {"type": "Feature", "properties": {"name": "", "denomination": "", "source": "osm"}, "geometry": {"type": "Point", "coordinates": [79.4021607, 16.4829122]}}, {"type": "Feature", "properties": {"name": "Divine Mercy Church", "denomination": "", "source": "osm"}, "geometry": {"type": "Point", "coordinates": [80.1521463, 13.1100235]}}, {"type": "Feature", "properties": {"name": "Prayer Fellowship Church", "denomination": "", "source": "osm"}, "geometry": {"type": "Point", "coordinates": [80.1718005, 17.1646582]}}, {"type": "Feature", "properties": {"name": "vempadu church", "denomination": "", "source": "osm"}, "geometry": {"type": "Point", "coordinates": [81.4849573, 16.5352414]}}, {"type": "Feature", "properties": {"name": "vempadu church", "denomination": "", "source": "osm"}, "geometry": {"type": "Point", "coordinates": [81.4796385, 16.5321481]}}, {"type": "Feature", "properties": {"name": "Zion Fellowship Church", "denomination": "pentecostal", "source": "osm"}, "geometry": {"type": "Point", "coordinates": [77.6340156, 12.9836565]}}, {"type": "Feature", "properties": {"name": "House of peace prayer hall", "denomination": "", "source": "osm"}, "geometry": {"type": "Point", "coordinates": [78.4450655, 17.4511424]}}, {"type": "Feature", "properties": {"name": "CSI Church", "denomination": "", "source": "osm"}, "geometry": {"type": "Point", "coordinates": [80.9881427, 16.4258587]}}, {"type": "Feature", "properties": {"name": "Emmanuel Church", "denomination": "", "source": "osm"}, "geometry": {"type": "Point", "coordinates": [80.9892095, 16.4267186]}}, {"type": "Feature", "properties": {"name": "RAJAM CHURCH OF CHRIST", "denomination": "", "source": "osm"}, "geometry": {"type": "Point", "coordinates": [83.651604, 18.4506037]}}, {"type": "Feature", "properties": {"name": "RCM CHURCH", "denomination": "", "source": "osm"}, "geometry": {"type": "Point", "coordinates": [83.6505657, 18.4515206]}}, {"type": "Feature", "properties": {"name": "ST LUTHERANS CHURCH", "denomination": "", "source": "osm"}, "geometry": {"type": "Point", "coordinates": [83.4218427, 18.7701964]}}, {"type": "Feature", "properties": {"name": "CARMEL BIBLE CHURCH", "denomination": "", "source": "osm"}, "geometry": {"type": "Point", "coordinates": [83.6642584, 18.4614442]}}, {"type": "Feature", "properties": {"name": "RAJAM LEF CHURCH", "denomination": "", "source": "osm"}, "geometry": {"type": "Point", "coordinates": [83.6640246, 18.4582814]}}, {"type": "Feature", "properties": {"name": "Priya prabhu  golden good news church", "denomination": "", "source": "osm"}, "geometry": {"type": "Point", "coordinates": [81.6951795, 16.7569163]}}, {"type": "Feature", "properties": {"name": "New GDM church", "denomination": "", "source": "osm"}, "geometry": {"type": "Point", "coordinates": [81.6949628, 16.7559026]}}, {"type": "Feature", "properties": {"name": "CBM CHURCH", "denomination": "", "source": "osm"}, "geometry": {"type": "Point", "coordinates": [83.6558411, 18.4488617]}}, {"type": "Feature", "properties": {"name": "Kgf Baptist Church", "denomination": "", "source": "osm"}, "geometry": {"type": "Point", "coordinates": [78.2641175, 12.972457]}}, {"type": "Feature", "properties": {"name": "Good Shepherd Church", "denomination": "", "source": "osm"}, "geometry": {"type": "Point", "coordinates": [78.26471, 12.926299]}}, {"type": "Feature", "properties": {"name": "Jesus Calls Prayer Tower", "denomination": "", "source": "osm"}, "geometry": {"type": "Point", "coordinates": [78.5125096, 17.4996054]}}, {"type": "Feature", "properties": {"name": "Annunciation Church", "denomination": "", "source": "osm"}, "geometry": {"type": "Point", "coordinates": [77.6013547, 12.9972714]}}, {"type": "Feature", "properties": {"name": "", "denomination": "", "source": "osm"}, "geometry": {"type": "Point", "coordinates": [78.4607051, 17.4881534]}}, {"type": "Feature", "properties": {"name": "Catholic Church", "denomination": "", "source": "osm"}, "geometry": {"type": "Point", "coordinates": [78.3901749, 17.4722044]}}, {"type": "Feature", "properties": {"name": "", "denomination": "", "source": "osm"}, "geometry": {"type": "Point", "coordinates": [80.1212859, 15.4466241]}}, {"type": "Feature", "properties": {"name": "", "denomination": "", "source": "osm"}, "geometry": {"type": "Point", "coordinates": [80.1177369, 15.4484011]}}, {"type": "Feature", "properties": {"name": "", "denomination": "", "source": "osm"}, "geometry": {"type": "Point", "coordinates": [78.5445263, 17.4236748]}}, {"type": "Feature", "properties": {"name": "CSI All Souls Telugu", "denomination": "", "source": "osm"}, "geometry": {"type": "Point", "coordinates": [76.9174277, 15.1460008]}}, {"type": "Feature", "properties": {"name": "CSI Telugu Church", "denomination": "protestant", "source": "osm"}, "geometry": {"type": "Point", "coordinates": [76.9145821, 15.1434786]}}, {"type": "Feature", "properties": {"name": "CSI John Hand Memorial Kannada Church", "denomination": "", "source": "osm"}, "geometry": {"type": "Point", "coordinates": [76.9226936, 15.1397155]}}, {"type": "Feature", "properties": {"name": "CSI All Souls Tamil Church", "denomination": "protestant", "source": "osm"}, "geometry": {"type": "Point", "coordinates": [76.9169971, 15.1442474]}}, {"type": "Feature", "properties": {"name": "CSI Holy Trinity English Church", "denomination": "protestant", "source": "osm"}, "geometry": {"type": "Point", "coordinates": [76.9175372, 15.1470207]}}, {"type": "Feature", "properties": {"name": "Bellary Youth Prayer Fellowship Church", "denomination": "protestant", "source": "osm"}, "geometry": {"type": "Point", "coordinates": [76.9184292, 15.1466985]}}, {"type": "Feature", "properties": {"name": "St. Anthony's Cathedral", "denomination": "catholic", "source": "osm"}, "geometry": {"type": "Point", "coordinates": [76.8989602, 15.1401343]}}, {"type": "Feature", "properties": {"name": "Christ the King Church", "denomination": "", "source": "osm"}, "geometry": {"type": "Point", "coordinates": [76.8991497, 15.1530524]}}, {"type": "Feature", "properties": {"name": "Holy Trinity Church", "denomination": "catholic", "source": "osm"}, "geometry": {"type": "Point", "coordinates": [76.9024724, 15.1564561]}}, {"type": "Feature", "properties": {"name": "Full Gospel Assembly of God Church", "denomination": "protestant", "source": "osm"}, "geometry": {"type": "Point", "coordinates": [76.8981431, 15.1649626]}}, {"type": "Feature", "properties": {"name": "Church of El-Shaddai", "denomination": "protestant", "source": "osm"}, "geometry": {"type": "Point", "coordinates": [76.9062116, 15.1304641]}}, {"type": "Feature", "properties": {"name": "", "denomination": "", "source": "osm"}, "geometry": {"type": "Point", "coordinates": [77.5550823, 13.0345082]}}, {"type": "Feature", "properties": {"name": "Athumanesar church", "denomination": "", "source": "osm"}, "geometry": {"type": "Point", "coordinates": [77.5595009, 13.0376973]}}, {"type": "Feature", "properties": {"name": "Shemrock Church", "denomination": "", "source": "osm"}, "geometry": {"type": "Point", "coordinates": [81.5399424, 18.1759921]}}, {"type": "Feature", "properties": {"name": "", "denomination": "catholic", "source": "osm"}, "geometry": {"type": "Point", "coordinates": [81.6607391, 18.3912069]}}, {"type": "Feature", "properties": {"name": "Salem Fellowship Church", "denomination": "", "source": "osm"}, "geometry": {"type": "Point", "coordinates": [78.4324838, 17.4460852]}}, {"type": "Feature", "properties": {"name": "church", "denomination": "catholic", "source": "osm"}, "geometry": {"type": "Point", "coordinates": [78.2800027, 14.9702056]}}, {"type": "Feature", "properties": {"name": "LLM Church", "denomination": "pentecostal", "source": "osm"}, "geometry": {"type": "Point", "coordinates": [80.2066033, 12.9053685]}}, {"type": "Feature", "properties": {"name": "", "denomination": "", "source": "osm"}, "geometry": {"type": "Point", "coordinates": [77.6141207, 12.9671413]}}, {"type": "Feature", "properties": {"name": "Bishop Heber Chapel", "denomination": "", "source": "osm"}, "geometry": {"type": "Point", "coordinates": [80.1238826, 12.9188484]}}, {"type": "Feature", "properties": {"name": "", "denomination": "", "source": "osm"}, "geometry": {"type": "Point", "coordinates": [77.7712734, 17.5386558]}}, {"type": "Feature", "properties": {"name": "Seventh Day Adventist Church", "denomination": "", "source": "osm"}, "geometry": {"type": "Point", "coordinates": [77.5935723, 12.9892988]}}, {"type": "Feature", "properties": {"name": "Krupa Ministries", "denomination": "", "source": "osm"}, "geometry": {"type": "Point", "coordinates": [79.9042829, 16.5371183]}}, {"type": "Feature", "properties": {"name": "Church", "denomination": "", "source": "osm"}, "geometry": {"type": "Point", "coordinates": [79.9064728, 16.5402378]}}, {"type": "Feature", "properties": {"name": "", "denomination": "", "source": "osm"}, "geometry": {"type": "Point", "coordinates": [80.3955587, 15.8568189]}}, {"type": "Feature", "properties": {"name": "Hosanna mandiram ,ravela", "denomination": "", "source": "osm"}, "geometry": {"type": "Point", "coordinates": [80.353225, 16.4181406]}}, {"type": "Feature", "properties": {"name": "Luthern Chruch", "denomination": "", "source": "osm"}, "geometry": {"type": "Point", "coordinates": [80.3484598, 16.4204886]}}, {"type": "Feature", "properties": {"name": "Punitha Francis Showri Vaari Devalayam", "denomination": "roman_catholic", "source": "osm"}, "geometry": {"type": "Point", "coordinates": [80.3696708, 16.3086091]}}, {"type": "Feature", "properties": {"name": "", "denomination": "", "source": "osm"}, "geometry": {"type": "Point", "coordinates": [78.4126492, 18.1533822]}}, {"type": "Feature", "properties": {"name": "Church", "denomination": "", "source": "osm"}, "geometry": {"type": "Point", "coordinates": [78.545701, 15.9423748]}}, {"type": "Feature", "properties": {"name": "Church", "denomination": "", "source": "osm"}, "geometry": {"type": "Point", "coordinates": [78.5442743, 15.9447771]}}, {"type": "Feature", "properties": {"name": "", "denomination": "", "source": "osm"}, "geometry": {"type": "Point", "coordinates": [78.5444843, 15.9447515]}}, {"type": "Feature", "properties": {"name": "CHURCH", "denomination": "", "source": "osm"}, "geometry": {"type": "Point", "coordinates": [79.4990975, 17.7019539]}}, {"type": "Feature", "properties": {"name": "Church", "denomination": "", "source": "osm"}, "geometry": {"type": "Point", "coordinates": [78.4911673, 15.8415913]}}, {"type": "Feature", "properties": {"name": "", "denomination": "", "source": "osm"}, "geometry": {"type": "Point", "coordinates": [83.6316409, 18.6664389]}}, {"type": "Feature", "properties": {"name": "Church", "denomination": "", "source": "osm"}, "geometry": {"type": "Point", "coordinates": [79.7120027, 16.4328406]}}, {"type": "Feature", "properties": {"name": "", "denomination": "", "source": "osm"}, "geometry": {"type": "Point", "coordinates": [79.3762805, 17.8593436]}}, {"type": "Feature", "properties": {"name": "CSI UNION CHURCH", "denomination": "", "source": "osm"}, "geometry": {"type": "Point", "coordinates": [83.9041837, 18.2965424]}}, {"type": "Feature", "properties": {"name": "", "denomination": "", "source": "osm"}, "geometry": {"type": "Point", "coordinates": [83.9029756, 18.2936013]}}, {"type": "Feature", "properties": {"name": "St.Andrews Church(CSI)", "denomination": "", "source": "osm"}, "geometry": {"type": "Point", "coordinates": [80.6174696, 17.5428128]}}, {"type": "Feature", "properties": {"name": "CHURCH", "denomination": "baptist", "source": "osm"}, "geometry": {"type": "Point", "coordinates": [80.9813155, 16.5362571]}}, {"type": "Feature", "properties": {"name": "CURCH", "denomination": "catholic", "source": "osm"}, "geometry": {"type": "Point", "coordinates": [80.9804266, 16.5387519]}}, {"type": "Feature", "properties": {"name": "", "denomination": "", "source": "osm"}, "geometry": {"type": "Point", "coordinates": [79.3463197, 18.0606899]}}, {"type": "Feature", "properties": {"name": "", "denomination": "", "source": "osm"}, "geometry": {"type": "Point", "coordinates": [78.4795396, 17.470797]}}, {"type": "Feature", "properties": {"name": "Church", "denomination": "", "source": "osm"}, "geometry": {"type": "Point", "coordinates": [81.7735508, 17.059096]}}, {"type": "Feature", "properties": {"name": "", "denomination": "", "source": "osm"}, "geometry": {"type": "Point", "coordinates": [79.352382, 18.0726189]}}, {"type": "Feature", "properties": {"name": "", "denomination": "", "source": "osm"}, "geometry": {"type": "Point", "coordinates": [81.6989665, 17.1747964]}}, {"type": "Feature", "properties": {"name": "", "denomination": "", "source": "osm"}, "geometry": {"type": "Point", "coordinates": [79.4232228, 18.0933647]}}, {"type": "Feature", "properties": {"name": "Calvary Church", "denomination": "catholic", "source": "osm"}, "geometry": {"type": "Point", "coordinates": [79.484312, 19.0327913]}}, {"type": "Feature", "properties": {"name": "Salvation Prayer Church", "denomination": "", "source": "osm"}, "geometry": {"type": "Point", "coordinates": [77.619815, 12.9487106]}}, {"type": "Feature", "properties": {"name": "New Apostolic Church", "denomination": "", "source": "osm"}, "geometry": {"type": "Point", "coordinates": [77.605889, 12.9486492]}}, {"type": "Feature", "properties": {"name": "Church", "denomination": "", "source": "osm"}, "geometry": {"type": "Point", "coordinates": [80.0421546, 14.6458556]}}, {"type": "Feature", "properties": {"name": "Infant Jesus Mini Church", "denomination": "", "source": "osm"}, "geometry": {"type": "Point", "coordinates": [77.6054853, 12.9512534]}}, {"type": "Feature", "properties": {"name": "Jesus Calls", "denomination": "", "source": "osm"}, "geometry": {"type": "Point", "coordinates": [80.2919227, 13.0938421]}}, {"type": "Feature", "properties": {"name": "", "denomination": "", "source": "osm"}, "geometry": {"type": "Point", "coordinates": [77.4107774, 12.824644]}}, {"type": "Feature", "properties": {"name": "Church", "denomination": "", "source": "osm"}, "geometry": {"type": "Point", "coordinates": [77.49759, 17.6161089]}}, {"type": "Feature", "properties": {"name": "St. Peters Church", "denomination": "protestant", "source": "osm"}, "geometry": {"type": "Point", "coordinates": [79.1949444, 13.0407886]}}, {"type": "Feature", "properties": {"name": "", "denomination": "", "source": "osm"}, "geometry": {"type": "Point", "coordinates": [79.1919189, 13.0423475]}}, {"type": "Feature", "properties": {"name": "", "denomination": "", "source": "osm"}, "geometry": {"type": "Point", "coordinates": [78.2701461, 17.8345255]}}, {"type": "Feature", "properties": {"name": "Church", "denomination": "", "source": "osm"}, "geometry": {"type": "Point", "coordinates": [78.134899, 18.3990509]}}, {"type": "Feature", "properties": {"name": "", "denomination": "", "source": "osm"}, "geometry": {"type": "Point", "coordinates": [80.7155252, 17.598944]}}, {"type": "Feature", "properties": {"name": "Shrine of St. Jude Thaddeaus", "denomination": "catholic", "source": "osm"}, "geometry": {"type": "Point", "coordinates": [77.5915888, 13.0264454]}}, {"type": "Feature", "properties": {"name": "church", "denomination": "", "source": "osm"}, "geometry": {"type": "Point", "coordinates": [77.936544, 16.3833547]}}, {"type": "Feature", "properties": {"name": "Jehovah Jireh AG Church", "denomination": "", "source": "osm"}, "geometry": {"type": "Point", "coordinates": [77.6268022, 12.9460064]}}, {"type": "Feature", "properties": {"name": "Cathalic Church", "denomination": "catholic", "source": "osm"}, "geometry": {"type": "Point", "coordinates": [79.4279195, 18.0761279]}}, {"type": "Feature", "properties": {"name": "", "denomination": "", "source": "osm"}, "geometry": {"type": "Point", "coordinates": [78.448572, 17.3753853]}}, {"type": "Feature", "properties": {"name": "church", "denomination": "", "source": "osm"}, "geometry": {"type": "Point", "coordinates": [79.4268752, 18.5107937]}}, {"type": "Feature", "properties": {"name": "", "denomination": "", "source": "osm"}, "geometry": {"type": "Point", "coordinates": [79.4137975, 18.5016]}}, {"type": "Feature", "properties": {"name": "", "denomination": "", "source": "osm"}, "geometry": {"type": "Point", "coordinates": [78.8486705, 18.1031908]}}, {"type": "Feature", "properties": {"name": "", "denomination": "", "source": "osm"}, "geometry": {"type": "Point", "coordinates": [79.3242775, 12.9114596]}}, {"type": "Feature", "properties": {"name": "Mission biblique de Yanaon", "denomination": "", "source": "osm"}, "geometry": {"type": "Point", "coordinates": [82.2165553, 16.7348091]}}, {"type": "Feature", "properties": {"name": "New Life Prince Of Peace Church", "denomination": "", "source": "osm"}, "geometry": {"type": "Point", "coordinates": [79.3212468, 12.945602]}}, {"type": "Feature", "properties": {"name": "Gospelbaptistchurch.", "denomination": "", "source": "osm"}, "geometry": {"type": "Point", "coordinates": [83.2056419, 17.8091119]}}, {"type": "Feature", "properties": {"name": "", "denomination": "", "source": "osm"}, "geometry": {"type": "Point", "coordinates": [78.5483404, 17.3905078]}}, {"type": "Feature", "properties": {"name": "", "denomination": "", "source": "osm"}, "geometry": {"type": "Point", "coordinates": [79.564283, 16.8683519]}}, {"type": "Feature", "properties": {"name": "Lutheran church", "denomination": "", "source": "osm"}, "geometry": {"type": "Point", "coordinates": [80.4758915, 15.9999176]}}, {"type": "Feature", "properties": {"name": "Lutheran church", "denomination": "", "source": "osm"}, "geometry": {"type": "Point", "coordinates": [80.4857371, 16.022331]}}, {"type": "Feature", "properties": {"name": "Gorlavaripalem Chruch", "denomination": "", "source": "osm"}, "geometry": {"type": "Point", "coordinates": [80.4052251, 16.3574116]}}, {"type": "Feature", "properties": {"name": "Chruch", "denomination": "", "source": "osm"}, "geometry": {"type": "Point", "coordinates": [80.4016377, 16.3571764]}}, {"type": "Feature", "properties": {"name": "St. Alphonsa Forane Church", "denomination": "", "source": "osm"}, "geometry": {"type": "Point", "coordinates": [77.6066728, 13.0324302]}}, {"type": "Feature", "properties": {"name": "", "denomination": "", "source": "osm"}, "geometry": {"type": "Point", "coordinates": [80.1741807, 13.0840507]}}, {"type": "Feature", "properties": {"name": "", "denomination": "", "source": "osm"}, "geometry": {"type": "Point", "coordinates": [80.2949836, 16.4086857]}}, {"type": "Feature", "properties": {"name": "", "denomination": "", "source": "osm"}, "geometry": {"type": "Point", "coordinates": [80.29515, 16.4089044]}}, {"type": "Feature", "properties": {"name": "", "denomination": "", "source": "osm"}, "geometry": {"type": "Point", "coordinates": [80.4506535, 15.8988576]}}, {"type": "Feature", "properties": {"name": "CBZ church", "denomination": "baptist", "source": "osm"}, "geometry": {"type": "Point", "coordinates": [80.4731376, 15.9048763]}}, {"type": "Feature", "properties": {"name": "ST Peter luthrain church", "denomination": "", "source": "osm"}, "geometry": {"type": "Point", "coordinates": [80.4569189, 15.9004448]}}, {"type": "Feature", "properties": {"name": "", "denomination": "", "source": "osm"}, "geometry": {"type": "Point", "coordinates": [80.805071, 16.2262876]}}, {"type": "Feature", "properties": {"name": "Lutharan church", "denomination": "", "source": "osm"}, "geometry": {"type": "Point", "coordinates": [80.8690907, 16.0457681]}}, {"type": "Feature", "properties": {"name": "", "denomination": "", "source": "osm"}, "geometry": {"type": "Point", "coordinates": [77.7523178, 12.7909422]}}, {"type": "Feature", "properties": {"name": "St Claret Church", "denomination": "", "source": "osm"}, "geometry": {"type": "Point", "coordinates": [84.0555982, 18.4265559]}}, {"type": "Feature", "properties": {"name": "Church", "denomination": "", "source": "osm"}, "geometry": {"type": "Point", "coordinates": [83.5538978, 18.5711992]}},